[
  {
    "name": "Pettegrove Point, Dochet Island",
    "station_id": "8410834",
    "latitude": 45.1284,
    "longitude": -67.1447,
    "prediction_type": "Harmonic"
  },
  {
    "name": "EASTPORT",
    "station_id": "8410140",
    "latitude": 44.9046,
    "longitude": -66.9829,
    "prediction_type": "Harmonic"
  },
  {
    "name": "Garnet Point, Pennamquan River",
    "station_id": "8410715",
    "latitude": 44.9233,
    "longitude": -67.13,
    "prediction_type": "Harmonic"
  },
  {
    "name": "Coffins Point",
    "station_id": "8410714",
    "latitude": 44.87,
    "longitude": -67.1083,
    "prediction_type": "Harmonic"
  },
  {
    "name": "Birch Islands",
    "station_id": "8410875",
    "latitude": 44.875,
    "longitude": -67.1583,
    "prediction_type": "Subordinate"
  },
  {
    "name": "Gravelly Point, Whiting Bay",
    "station_id": "8410864",
    "latitude": 44.8233,
    "longitude": -67.1517,
    "prediction_type": "Harmonic"
  },
  {
    "name": "Cutler, Little River",
    "station_id": "8411060",
    "latitude": 44.6567,
    "longitude": -67.21,
    "prediction_type": "Harmonic"
  },
  {
    "name": "Cutler, Naval Radio Station",
    "station_id": "8411250",
    "latitude": 44.6417,
    "longitude": -67.2967,
    "prediction_type": "Harmonic"
  },
  {
    "name": "Stone Island, Machias Bay",
    "station_id": "8411411",
    "latitude": 44.6033,
    "longitude": -67.3683,
    "prediction_type": "Subordinate"
  },
  {
    "name": "Machiasport, Machias River",
    "station_id": "8411467",
    "latitude": 44.6983,
    "longitude": -67.3933,
    "prediction_type": "Subordinate"
  },
  {
    "name": "Shoppee Point, Englishman Bay",
    "station_id": "8411696",
    "latitude": 44.615,
    "longitude": -67.4967,
    "prediction_type": "Subordinate"
  },
  {
    "name": "Steele Harbor Island",
    "station_id": "8411801",
    "latitude": 44.4933,
    "longitude": -67.5433,
    "prediction_type": "Subordinate"
  },
  {
    "name": "Millbridge, Narraguagus River, Maine",
    "station_id": "8412581",
    "latitude": 44.54,
    "longitude": -67.875,
    "prediction_type": "Harmonic"
  },
  {
    "name": "Green Island, Petit Manan Bar",
    "station_id": "8412568",
    "latitude": 44.3717,
    "longitude": -67.87,
    "prediction_type": "Subordinate"
  },
  {
    "name": "Prospect Harbor",
    "station_id": "8412932",
    "latitude": 44.4,
    "longitude": -68.0217,
    "prediction_type": "Subordinate"
  },
  {
    "name": "BAR HARBOR",
    "station_id": "8413320",
    "latitude": 44.3922,
    "longitude": -68.2043,
    "prediction_type": "Harmonic"
  },
  {
    "name": "Southwest Harbor",
    "station_id": "8413564",
    "latitude": 44.275,
    "longitude": -68.3133,
    "prediction_type": "Subordinate"
  },
  {
    "name": "Bass Harbor",
    "station_id": "8413651",
    "latitude": 44.2417,
    "longitude": -68.3533,
    "prediction_type": "Subordinate"
  },
  {
    "name": "Winter Harbor, Frenchman Bay",
    "station_id": "8413079",
    "latitude": 44.3883,
    "longitude": -68.0867,
    "prediction_type": "Subordinate"
  },
  {
    "name": "Blue Hill Harbor",
    "station_id": "8414112",
    "latitude": 44.4083,
    "longitude": -68.5633,
    "prediction_type": "Subordinate"
  },
  {
    "name": "Mackerel Cove, Swans Island",
    "station_id": "8413825",
    "latitude": 44.17,
    "longitude": -68.435,
    "prediction_type": "Harmonic"
  },
  {
    "name": "Ellsworth, Union River",
    "station_id": "8413801",
    "latitude": 44.535,
    "longitude": -68.4217,
    "prediction_type": "Harmonic"
  },
  {
    "name": "Burnt Coat Harbor, Swans Island",
    "station_id": "8413857",
    "latitude": 44.145,
    "longitude": -68.45,
    "prediction_type": "Subordinate"
  },
  {
    "name": "Center Harbor",
    "station_id": "8414168",
    "latitude": 44.2633,
    "longitude": -68.5867,
    "prediction_type": "Subordinate"
  },
  {
    "name": "Little Deer Isle",
    "station_id": "8414424",
    "latitude": 44.2917,
    "longitude": -68.6933,
    "prediction_type": "Subordinate"
  },
  {
    "name": "Isle Au Haut",
    "station_id": "8414288",
    "latitude": 44.0733,
    "longitude": -68.6367,
    "prediction_type": "Subordinate"
  },
  {
    "name": "Oceanville, Deer Isle",
    "station_id": "8414249",
    "latitude": 44.1923,
    "longitude": -68.6209,
    "prediction_type": "Harmonic"
  },
  {
    "name": "Stonington, Deer Isle",
    "station_id": "8414348",
    "latitude": 44.1533,
    "longitude": -68.6617,
    "prediction_type": "Subordinate"
  },
  {
    "name": "Matinicus Harbor, Wheaton Island",
    "station_id": "8414876",
    "latitude": 43.8617,
    "longitude": -68.8817,
    "prediction_type": "Subordinate"
  },
  {
    "name": "Vinalhaven, Vinalhaven Island",
    "station_id": "8414776",
    "latitude": 44.0433,
    "longitude": -68.84,
    "prediction_type": "Subordinate"
  },
  {
    "name": "North Haven",
    "station_id": "8414856",
    "latitude": 44.1267,
    "longitude": -68.8733,
    "prediction_type": "Subordinate"
  },
  {
    "name": "Castine",
    "station_id": "8414672",
    "latitude": 44.3867,
    "longitude": -68.7967,
    "prediction_type": "Subordinate"
  },
  {
    "name": "Pulpit Harbor, North Haven Island",
    "station_id": "8414888",
    "latitude": 44.1567,
    "longitude": -68.8867,
    "prediction_type": "Harmonic"
  },
  {
    "name": "Fort Point, Penobscot River",
    "station_id": "8414721",
    "latitude": 44.4717,
    "longitude": -68.8133,
    "prediction_type": "Harmonic"
  },
  {
    "name": "Gross Point, Eastern Channel",
    "station_id": "8414581",
    "latitude": 44.5367,
    "longitude": -68.7583,
    "prediction_type": "Subordinate"
  },
  {
    "name": "Bucksport",
    "station_id": "8414684",
    "latitude": 44.5717,
    "longitude": -68.8017,
    "prediction_type": "Subordinate"
  },
  {
    "name": "Winterport",
    "station_id": "8414781",
    "latitude": 44.6367,
    "longitude": -68.8417,
    "prediction_type": "Harmonic"
  },
  {
    "name": "Sandy Point",
    "station_id": "8414692",
    "latitude": 44.505,
    "longitude": -68.805,
    "prediction_type": "Subordinate"
  },
  {
    "name": "Bangor",
    "station_id": "8414612",
    "latitude": 44.785,
    "longitude": -68.7667,
    "prediction_type": "Harmonic"
  },
  {
    "name": "Belfast",
    "station_id": "8415191",
    "latitude": 44.4267,
    "longitude": -69.005,
    "prediction_type": "Subordinate"
  },
  {
    "name": "Rockland",
    "station_id": "8415490",
    "latitude": 44.105,
    "longitude": -69.1017,
    "prediction_type": "Harmonic"
  },
  {
    "name": "Tenants Harbor",
    "station_id": "8415809",
    "latitude": 43.965,
    "longitude": -69.2167,
    "prediction_type": "Subordinate"
  },
  {
    "name": "Monhegan Island",
    "station_id": "8416092",
    "latitude": 43.765,
    "longitude": -69.3217,
    "prediction_type": "Subordinate"
  },
  {
    "name": "Burnt Island, Georges Islands",
    "station_id": "8416028",
    "latitude": 43.8717,
    "longitude": -69.295,
    "prediction_type": "Subordinate"
  },
  {
    "name": "Port Clyde",
    "station_id": "8415933",
    "latitude": 43.925,
    "longitude": -69.26,
    "prediction_type": "Subordinate"
  },
  {
    "name": "Otis Cove",
    "station_id": "8415867",
    "latitude": 43.9867,
    "longitude": -69.2367,
    "prediction_type": "Subordinate"
  },
  {
    "name": "Thomaston",
    "station_id": "8415709",
    "latitude": 44.0717,
    "longitude": -69.1817,
    "prediction_type": "Harmonic"
  },
  {
    "name": "New Harbor, Muscongus Bay",
    "station_id": "8416501",
    "latitude": 43.875,
    "longitude": -69.4917,
    "prediction_type": "Subordinate"
  },
  {
    "name": "Muscongus Harbor, Muscongus Sound",
    "station_id": "8416381",
    "latitude": 43.9667,
    "longitude": -69.4417,
    "prediction_type": "Subordinate"
  },
  {
    "name": "Friendship Harbor",
    "station_id": "8416141",
    "latitude": 43.97,
    "longitude": -69.3417,
    "prediction_type": "Subordinate"
  },
  {
    "name": "Pemaquid Harbor, Johns Bay",
    "station_id": "8416581",
    "latitude": 43.8767,
    "longitude": -69.525,
    "prediction_type": "Subordinate"
  },
  {
    "name": "Jones Neck",
    "station_id": "8416232",
    "latitude": 44.015,
    "longitude": -69.38,
    "prediction_type": "Subordinate"
  },
  {
    "name": "Waldoboro",
    "station_id": "8416224",
    "latitude": 44.0933,
    "longitude": -69.3767,
    "prediction_type": "Subordinate"
  },
  {
    "name": "East Boothbay",
    "station_id": "8416721",
    "latitude": 43.865,
    "longitude": -69.5833,
    "prediction_type": "Subordinate"
  },
  {
    "name": "Walpole",
    "station_id": "8416731",
    "latitude": 43.9333,
    "longitude": -69.58,
    "prediction_type": "Harmonic"
  },
  {
    "name": "Newcastle",
    "station_id": "8416608",
    "latitude": 44.0333,
    "longitude": -69.5367,
    "prediction_type": "Subordinate"
  },
  {
    "name": "Damariscove Harbor, Damariscove Island",
    "station_id": "8416796",
    "latitude": 43.7583,
    "longitude": -69.615,
    "prediction_type": "Subordinate"
  },
  {
    "name": "Boothbay Harbor",
    "station_id": "8416828",
    "latitude": 43.85,
    "longitude": -69.6283,
    "prediction_type": "Subordinate"
  },
  {
    "name": "Southport, Townsend Gut",
    "station_id": "8416908",
    "latitude": 43.8467,
    "longitude": -69.6617,
    "prediction_type": "Subordinate"
  },
  {
    "name": "Isle of Springs",
    "station_id": "8416968",
    "latitude": 43.86,
    "longitude": -69.6867,
    "prediction_type": "Subordinate"
  },
  {
    "name": "Cross River entrance",
    "station_id": "8416928",
    "latitude": 43.925,
    "longitude": -69.67,
    "prediction_type": "Subordinate"
  },
  {
    "name": "Wiscasset",
    "station_id": "8416921",
    "latitude": 44.0,
    "longitude": -69.6667,
    "prediction_type": "Subordinate"
  },
  {
    "name": "Sheepscot (below rapids)",
    "station_id": "8416804",
    "latitude": 44.05,
    "longitude": -69.6183,
    "prediction_type": "Subordinate"
  },
  {
    "name": "Back River",
    "station_id": "8416961",
    "latitude": 43.9583,
    "longitude": -69.6833,
    "prediction_type": "Subordinate"
  },
  {
    "name": "Robinhood, Sasanoa River",
    "station_id": "8417067",
    "latitude": 43.8533,
    "longitude": -69.7333,
    "prediction_type": "Subordinate"
  },
  {
    "name": "Mill Point, Sasanoa River",
    "station_id": "8417127",
    "latitude": 43.8867,
    "longitude": -69.7633,
    "prediction_type": "Subordinate"
  },
  {
    "name": "Fort Popham, Hunniwell Point",
    "station_id": "8417177",
    "latitude": 43.755,
    "longitude": -69.785,
    "prediction_type": "Harmonic"
  },
  {
    "name": "Phippsburg",
    "station_id": "8417221",
    "latitude": 43.8183,
    "longitude": -69.81,
    "prediction_type": "Subordinate"
  },
  {
    "name": "Bath",
    "station_id": "8417227",
    "latitude": 43.925,
    "longitude": -69.815,
    "prediction_type": "Harmonic"
  },
  {
    "name": "Sturgeon Island, Merrymeeting Bay",
    "station_id": "8417271",
    "latitude": 43.9817,
    "longitude": -69.835,
    "prediction_type": "Subordinate"
  },
  {
    "name": "Androscoggin River entrance",
    "station_id": "8417377",
    "latitude": 43.95,
    "longitude": -69.8883,
    "prediction_type": "Subordinate"
  },
  {
    "name": "Brunswick, Androscoggin River",
    "station_id": "8417527",
    "latitude": 43.9217,
    "longitude": -69.9633,
    "prediction_type": "Subordinate"
  },
  {
    "name": "Bowdoinham, Cathance River",
    "station_id": "8417391",
    "latitude": 44.0083,
    "longitude": -69.895,
    "prediction_type": "Subordinate"
  },
  {
    "name": "Cundy Harbor, New Meadows River",
    "station_id": "8417387",
    "latitude": 43.7883,
    "longitude": -69.8933,
    "prediction_type": "Subordinate"
  },
  {
    "name": "Howard Point, New Meadows River",
    "station_id": "8417367",
    "latitude": 43.89,
    "longitude": -69.8833,
    "prediction_type": "Subordinate"
  },
  {
    "name": "South Harpswell, Potts Harbor",
    "station_id": "8417647",
    "latitude": 43.7383,
    "longitude": -70.0233,
    "prediction_type": "Subordinate"
  },
  {
    "name": "Wilson Cove, Middle Bay",
    "station_id": "8417553",
    "latitude": 43.825,
    "longitude": -69.9767,
    "prediction_type": "Subordinate"
  },
  {
    "name": "South Freeport",
    "station_id": "8417801",
    "latitude": 43.82,
    "longitude": -70.1033,
    "prediction_type": "Subordinate"
  },
  {
    "name": "Prince Point",
    "station_id": "8417948",
    "latitude": 43.7617,
    "longitude": -70.1733,
    "prediction_type": "Subordinate"
  },
  {
    "name": "Doyle Point",
    "station_id": "8417874",
    "latitude": 43.7517,
    "longitude": -70.14,
    "prediction_type": "Subordinate"
  },
  {
    "name": "Falmouth Foreside",
    "station_id": "8418015",
    "latitude": 43.7317,
    "longitude": -70.205,
    "prediction_type": "Subordinate"
  },
  {
    "name": "Great Chebeague Island",
    "station_id": "8417881",
    "latitude": 43.7217,
    "longitude": -70.1417,
    "prediction_type": "Subordinate"
  },
  {
    "name": "Cliff Island, Luckse Sound",
    "station_id": "8417821",
    "latitude": 43.695,
    "longitude": -70.11,
    "prediction_type": "Subordinate"
  },
  {
    "name": "Vaill Island",
    "station_id": "8417911",
    "latitude": 43.6767,
    "longitude": -70.155,
    "prediction_type": "Subordinate"
  },
  {
    "name": "Long Island",
    "station_id": "8417941",
    "latitude": 43.69,
    "longitude": -70.17,
    "prediction_type": "Subordinate"
  },
  {
    "name": "Cow Island",
    "station_id": "8418009",
    "latitude": 43.69,
    "longitude": -70.19,
    "prediction_type": "Subordinate"
  },
  {
    "name": "Presumpscot River Bridge",
    "station_id": "8418137",
    "latitude": 43.6867,
    "longitude": -70.2467,
    "prediction_type": "Subordinate"
  },
  {
    "name": "Back Cove",
    "station_id": "8418175",
    "latitude": 43.6767,
    "longitude": -70.255,
    "prediction_type": "Subordinate"
  },
  {
    "name": "Great Diamond Island",
    "station_id": "8417988",
    "latitude": 43.67,
    "longitude": -70.2,
    "prediction_type": "Subordinate"
  },
  {
    "name": "Peak Island",
    "station_id": "8418001",
    "latitude": 43.655,
    "longitude": -70.2,
    "prediction_type": "Subordinate"
  },
  {
    "name": "Cushing Island",
    "station_id": "8417997",
    "latitude": 43.645,
    "longitude": -70.1983,
    "prediction_type": "Subordinate"
  },
  {
    "name": "PORTLAND",
    "station_id": "8418150",
    "latitude": 43.6581,
    "longitude": -70.2442,
    "prediction_type": "Harmonic"
  },
  {
    "name": "Fore River",
    "station_id": "8418268",
    "latitude": 43.6417,
    "longitude": -70.285,
    "prediction_type": "Subordinate"
  },
  {
    "name": "Portland Head Light",
    "station_id": "8418031",
    "latitude": 43.6233,
    "longitude": -70.2067,
    "prediction_type": "Subordinate"
  },
  {
    "name": "Pine Point, Scarborough River",
    "station_id": "8418445",
    "latitude": 43.545,
    "longitude": -70.3333,
    "prediction_type": "Harmonic"
  },
  {
    "name": "Old Orchard Beach",
    "station_id": "8418557",
    "latitude": 43.5167,
    "longitude": -70.3667,
    "prediction_type": "Subordinate"
  },
  {
    "name": "Camp Ellis, Saco River Entrance",
    "station_id": "8418606",
    "latitude": 43.4617,
    "longitude": -70.3817,
    "prediction_type": "Harmonic"
  },
  {
    "name": "Biddeford, Saco River",
    "station_id": "8418828",
    "latitude": 43.4917,
    "longitude": -70.4467,
    "prediction_type": "Harmonic"
  },
  {
    "name": "Cape Porpoise",
    "station_id": "8418772",
    "latitude": 43.3667,
    "longitude": -70.4317,
    "prediction_type": "Subordinate"
  },
  {
    "name": "Kennebunkport",
    "station_id": "8418911",
    "latitude": 43.3583,
    "longitude": -70.4767,
    "prediction_type": "Harmonic"
  },
  {
    "name": "Wells, Webhannet River",
    "station_id": "8419317",
    "latitude": 43.32,
    "longitude": -70.5633,
    "prediction_type": "Harmonic"
  },
  {
    "name": "Cape Neddick",
    "station_id": "8419399",
    "latitude": 43.1667,
    "longitude": -70.5933,
    "prediction_type": "Subordinate"
  },
  {
    "name": "York Harbor",
    "station_id": "8419518",
    "latitude": 43.1317,
    "longitude": -70.6417,
    "prediction_type": "Subordinate"
  },
  {
    "name": "Fort Point, York Harbor",
    "station_id": "8419528",
    "latitude": 43.13,
    "longitude": -70.6383,
    "prediction_type": "Subordinate"
  },
  {
    "name": "Seapoint, Cutts Island",
    "station_id": "8419590",
    "latitude": 43.085,
    "longitude": -70.6617,
    "prediction_type": "Subordinate"
  },
  {
    "name": "Jaffrey Point",
    "station_id": "8424601",
    "latitude": 43.0567,
    "longitude": -70.7133,
    "prediction_type": "Subordinate"
  },
  {
    "name": "Gerrish Island",
    "station_id": "8419688",
    "latitude": 43.0667,
    "longitude": -70.6967,
    "prediction_type": "Subordinate"
  },
  {
    "name": "Fort Point",
    "station_id": "8423898",
    "latitude": 43.0717,
    "longitude": -70.7117,
    "prediction_type": "Harmonic"
  },
  {
    "name": "Kittery Point",
    "station_id": "8419807",
    "latitude": 43.0817,
    "longitude": -70.7033,
    "prediction_type": "Subordinate"
  },
  {
    "name": "Seavey Island",
    "station_id": "8419870",
    "latitude": 43.0797,
    "longitude": -70.7411,
    "prediction_type": "Harmonic"
  },
  {
    "name": "Portsmouth",
    "station_id": "8423745",
    "latitude": 43.0783,
    "longitude": -70.7517,
    "prediction_type": "Subordinate"
  },
  {
    "name": "Atlantic Heights",
    "station_id": "8423635",
    "latitude": 43.09,
    "longitude": -70.7633,
    "prediction_type": "Subordinate"
  },
  {
    "name": "Dover Point",
    "station_id": "8421897",
    "latitude": 43.1217,
    "longitude": -70.8333,
    "prediction_type": "Subordinate"
  },
  {
    "name": "Dover, Cocheco River",
    "station_id": "8420411",
    "latitude": 43.1983,
    "longitude": -70.8683,
    "prediction_type": "Harmonic"
  },
  {
    "name": "Salmon Falls River",
    "station_id": "8419997",
    "latitude": 43.1917,
    "longitude": -70.825,
    "prediction_type": "Subordinate"
  },
  {
    "name": "Squamscott River RR. Bridge",
    "station_id": "8422687",
    "latitude": 43.0533,
    "longitude": -70.9133,
    "prediction_type": "Subordinate"
  },
  {
    "name": "Gosport Harbor, Isles of Shoals",
    "station_id": "8427031",
    "latitude": 42.9783,
    "longitude": -70.615,
    "prediction_type": "Subordinate"
  },
  {
    "name": "Hampton Harbor",
    "station_id": "8429489",
    "latitude": 42.895,
    "longitude": -70.8167,
    "prediction_type": "Subordinate"
  },
  {
    "name": "Plum Island, Merrimack River Entrance",
    "station_id": "8440452",
    "latitude": 42.8167,
    "longitude": -70.82,
    "prediction_type": "Harmonic"
  },
  {
    "name": "Newburyport",
    "station_id": "8440466",
    "latitude": 42.815,
    "longitude": -70.8733,
    "prediction_type": "Harmonic"
  },
  {
    "name": "Salisbury Point",
    "station_id": "8440273",
    "latitude": 42.8383,
    "longitude": -70.9083,
    "prediction_type": "Harmonic"
  },
  {
    "name": "Merrimacport",
    "station_id": "8440369",
    "latitude": 42.825,
    "longitude": -70.9883,
    "prediction_type": "Harmonic"
  },
  {
    "name": "Riverside",
    "station_id": "8440889",
    "latitude": 42.7633,
    "longitude": -71.0767,
    "prediction_type": "Harmonic"
  },
  {
    "name": "Plum Island Sound (south end)",
    "station_id": "8441241",
    "latitude": 42.7101,
    "longitude": -70.7886,
    "prediction_type": "Harmonic"
  },
  {
    "name": "Essex",
    "station_id": "8441771",
    "latitude": 42.6317,
    "longitude": -70.7767,
    "prediction_type": "Harmonic"
  },
  {
    "name": "Annisquam, Lobster Cove",
    "station_id": "8441571",
    "latitude": 42.655,
    "longitude": -70.6767,
    "prediction_type": "Harmonic"
  },
  {
    "name": "Rockport",
    "station_id": "8441551",
    "latitude": 42.6583,
    "longitude": -70.615,
    "prediction_type": "Harmonic"
  },
  {
    "name": "Gloucester Harbor",
    "station_id": "8441841",
    "latitude": 42.61,
    "longitude": -70.66,
    "prediction_type": "Harmonic"
  },
  {
    "name": "Beverly, Beverly Harbor",
    "station_id": "8442417",
    "latitude": 42.54,
    "longitude": -70.8867,
    "prediction_type": "Harmonic"
  },
  {
    "name": "Salem, Salem Harbor",
    "station_id": "8442645",
    "latitude": 42.5233,
    "longitude": -70.8767,
    "prediction_type": "Harmonic"
  },
  {
    "name": "Lynn, Lynn Harbor",
    "station_id": "8443187",
    "latitude": 42.4583,
    "longitude": -70.9433,
    "prediction_type": "Harmonic"
  },
  {
    "name": "Boston Light",
    "station_id": "8444162",
    "latitude": 42.3283,
    "longitude": -70.8917,
    "prediction_type": "Harmonic"
  },
  {
    "name": "Deer Island (south end)",
    "station_id": "8444012",
    "latitude": 42.3483,
    "longitude": -70.96,
    "prediction_type": "Subordinate"
  },
  {
    "name": "BOSTON",
    "station_id": "8443970",
    "latitude": 42.3539,
    "longitude": -71.0503,
    "prediction_type": "Harmonic"
  },
  {
    "name": "Charlestown, Charles River entrance",
    "station_id": "8443838",
    "latitude": 42.3717,
    "longitude": -71.055,
    "prediction_type": "Subordinate"
  },
  {
    "name": "Amelia Earhart Dam, Mystic River",
    "station_id": "8443662",
    "latitude": 42.395,
    "longitude": -71.0767,
    "prediction_type": "Harmonic"
  },
  {
    "name": "Chelsea St. Bridge, Chelsea River",
    "station_id": "8443725",
    "latitude": 42.3867,
    "longitude": -71.0233,
    "prediction_type": "Harmonic"
  },
  {
    "name": "Neponset, Neponset River",
    "station_id": "8444488",
    "latitude": 42.285,
    "longitude": -71.04,
    "prediction_type": "Subordinate"
  },
  {
    "name": "Moon Head",
    "station_id": "8444312",
    "latitude": 42.3083,
    "longitude": -70.9917,
    "prediction_type": "Subordinate"
  },
  {
    "name": "Nut Island, Quincy Bay",
    "station_id": "8444525",
    "latitude": 42.28,
    "longitude": -70.9533,
    "prediction_type": "Harmonic"
  },
  {
    "name": "Weymouth Fore River Bridge",
    "station_id": "8444788",
    "latitude": 42.2483,
    "longitude": -70.9667,
    "prediction_type": "Harmonic"
  },
  {
    "name": "Crow Point, Hingham Harbor entrance",
    "station_id": "8444662",
    "latitude": 42.2617,
    "longitude": -70.8933,
    "prediction_type": "Subordinate"
  },
  {
    "name": "Hingham",
    "station_id": "8444775",
    "latitude": 42.2467,
    "longitude": -70.885,
    "prediction_type": "Subordinate"
  },
  {
    "name": "Nantasket Beach, Weir River",
    "station_id": "8444601",
    "latitude": 42.27,
    "longitude": -70.86,
    "prediction_type": "Subordinate"
  },
  {
    "name": "Hull",
    "station_id": "8444351",
    "latitude": 42.3033,
    "longitude": -70.92,
    "prediction_type": "Subordinate"
  },
  {
    "name": "Cohasset Harbor (White Head)",
    "station_id": "8444762",
    "latitude": 42.2483,
    "longitude": -70.785,
    "prediction_type": "Subordinate"
  },
  {
    "name": "Scituate, Scituate Harbor",
    "station_id": "8445138",
    "latitude": 42.2017,
    "longitude": -70.7267,
    "prediction_type": "Harmonic"
  },
  {
    "name": "Damons Point, North River",
    "station_id": "8445425",
    "latitude": 42.16,
    "longitude": -70.7333,
    "prediction_type": "Subordinate"
  },
  {
    "name": "Brant Rock, Green Harbor River",
    "station_id": "8446009",
    "latitude": 42.0833,
    "longitude": -70.6467,
    "prediction_type": "Harmonic"
  },
  {
    "name": "Duxbury, Duxbury Harbor",
    "station_id": "8446166",
    "latitude": 42.0383,
    "longitude": -70.67,
    "prediction_type": "Harmonic"
  },
  {
    "name": "Plymouth",
    "station_id": "8446493",
    "latitude": 41.96,
    "longitude": -70.6617,
    "prediction_type": "Harmonic"
  },
  {
    "name": "Cape Cod Canal, Sagamore",
    "station_id": "8447173",
    "latitude": 41.775,
    "longitude": -70.535,
    "prediction_type": "Harmonic"
  },
  {
    "name": "Cape Cod Canal, Bournedale",
    "station_id": "8447191",
    "latitude": 41.77,
    "longitude": -70.5617,
    "prediction_type": "Harmonic"
  },
  {
    "name": "Cape Cod Canal, Bourne Bridge",
    "station_id": "8447259",
    "latitude": 41.745,
    "longitude": -70.5933,
    "prediction_type": "Harmonic"
  },
  {
    "name": "Sandwich Marina, Cape Cod Canal, east entrance",
    "station_id": "8447180",
    "latitude": 41.7717,
    "longitude": -70.5067,
    "prediction_type": "Harmonic"
  },
  {
    "name": "Barnstable Harbor, Beach Point",
    "station_id": "8447335",
    "latitude": 41.7217,
    "longitude": -70.285,
    "prediction_type": "Subordinate"
  },
  {
    "name": "Sesuit Harbor, East Dennis",
    "station_id": "8447241",
    "latitude": 41.7517,
    "longitude": -70.155,
    "prediction_type": "Harmonic"
  },
  {
    "name": "Wellfleet",
    "station_id": "8446613",
    "latitude": 41.93,
    "longitude": -70.0417,
    "prediction_type": "Subordinate"
  },
  {
    "name": "Provincetown",
    "station_id": "8446121",
    "latitude": 42.0496,
    "longitude": -70.1822,
    "prediction_type": "Harmonic"
  },
  {
    "name": "Chatham, Stage Harbor",
    "station_id": "8447505",
    "latitude": 41.6667,
    "longitude": -69.9667,
    "prediction_type": "Harmonic"
  },
  {
    "name": "Chatham Harbor, Aunt Lydias Cove",
    "station_id": "8447435",
    "latitude": 41.6885,
    "longitude": -69.9511,
    "prediction_type": "Harmonic"
  },
  {
    "name": "Pleasant Bay",
    "station_id": "8447291",
    "latitude": 41.7367,
    "longitude": -69.9817,
    "prediction_type": "Subordinate"
  },
  {
    "name": "Georges Shoal, Texas Tower",
    "station_id": "8447436",
    "latitude": 41.6883,
    "longitude": -67.76,
    "prediction_type": "Subordinate"
  },
  {
    "name": "Saquatucket Harbor",
    "station_id": "8447495",
    "latitude": 41.6683,
    "longitude": -70.0567,
    "prediction_type": "Harmonic"
  },
  {
    "name": "Wychmere Harbor",
    "station_id": "8447506",
    "latitude": 41.665,
    "longitude": -70.065,
    "prediction_type": "Subordinate"
  },
  {
    "name": "Dennisport",
    "station_id": "8447525",
    "latitude": 41.6583,
    "longitude": -70.115,
    "prediction_type": "Subordinate"
  },
  {
    "name": "South Yarmouth, Bass River",
    "station_id": "8447504",
    "latitude": 41.665,
    "longitude": -70.1833,
    "prediction_type": "Subordinate"
  },
  {
    "name": "Hyannis Port",
    "station_id": "8447605",
    "latitude": 41.6317,
    "longitude": -70.3,
    "prediction_type": "Harmonic"
  },
  {
    "name": "Cotuit Highlands",
    "station_id": "8447675",
    "latitude": 41.6083,
    "longitude": -70.4367,
    "prediction_type": "Subordinate"
  },
  {
    "name": "Poponesset Island, Poponesset Bay",
    "station_id": "8447742",
    "latitude": 41.5867,
    "longitude": -70.4633,
    "prediction_type": "Subordinate"
  },
  {
    "name": "Falmouth Heights",
    "station_id": "8447865",
    "latitude": 41.545,
    "longitude": -70.5933,
    "prediction_type": "Subordinate"
  },
  {
    "name": "Great Point",
    "station_id": "8448566",
    "latitude": 41.3867,
    "longitude": -70.0467,
    "prediction_type": "Subordinate"
  },
  {
    "name": "NANTUCKET",
    "station_id": "8449130",
    "latitude": 41.285,
    "longitude": -70.0967,
    "prediction_type": "Harmonic"
  },
  {
    "name": "Eel Point",
    "station_id": "8449062",
    "latitude": 41.2917,
    "longitude": -70.2083,
    "prediction_type": "Subordinate"
  },
  {
    "name": "Muskeget Island, north side",
    "station_id": "8448817",
    "latitude": 41.3367,
    "longitude": -70.305,
    "prediction_type": "Subordinate"
  },
  {
    "name": "Wasque Point, Chappaquiddick Island",
    "station_id": "8448683",
    "latitude": 41.3633,
    "longitude": -70.45,
    "prediction_type": "Subordinate"
  },
  {
    "name": "Martha's Vineyard GPS Buoy",
    "station_id": "8448875",
    "latitude": 41.3262,
    "longitude": -70.5903,
    "prediction_type": "Harmonic"
  },
  {
    "name": "Squibnocket Point",
    "station_id": "8448942",
    "latitude": 41.3117,
    "longitude": -70.7683,
    "prediction_type": "Subordinate"
  },
  {
    "name": "Nomans Land",
    "station_id": "8449287",
    "latitude": 41.2617,
    "longitude": -70.8183,
    "prediction_type": "Subordinate"
  },
  {
    "name": "Gay Head",
    "station_id": "8448733",
    "latitude": 41.3533,
    "longitude": -70.83,
    "prediction_type": "Subordinate"
  },
  {
    "name": "Cedar Tree Neck",
    "station_id": "8448325",
    "latitude": 41.435,
    "longitude": -70.6967,
    "prediction_type": "Subordinate"
  },
  {
    "name": "VINEYARD HAVEN, VINEYARD HVN HBR",
    "station_id": "8448157",
    "latitude": 41.4583,
    "longitude": -70.6,
    "prediction_type": "Harmonic"
  },
  {
    "name": "Oak Bluffs",
    "station_id": "8448208",
    "latitude": 41.4583,
    "longitude": -70.555,
    "prediction_type": "Subordinate"
  },
  {
    "name": "Edgartown",
    "station_id": "8448558",
    "latitude": 41.3883,
    "longitude": -70.5117,
    "prediction_type": "Harmonic"
  },
  {
    "name": "Little Harbor",
    "station_id": "8447939",
    "latitude": 41.52,
    "longitude": -70.665,
    "prediction_type": "Subordinate"
  },
  {
    "name": "OCEANOGRAPHIC INSTITUTION",
    "station_id": "8447930",
    "latitude": 41.5236,
    "longitude": -70.6711,
    "prediction_type": "Harmonic"
  },
  {
    "name": "Uncatena Island (south side)",
    "station_id": "8447941",
    "latitude": 41.52,
    "longitude": -70.7083,
    "prediction_type": "Subordinate"
  },
  {
    "name": "Quicks Hole, North side",
    "station_id": "8448251",
    "latitude": 41.4483,
    "longitude": -70.8567,
    "prediction_type": "Subordinate"
  },
  {
    "name": "Cuttyhunk",
    "station_id": "8448376",
    "latitude": 41.425,
    "longitude": -70.9167,
    "prediction_type": "Subordinate"
  },
  {
    "name": "Penikese Island",
    "station_id": "8448248",
    "latitude": 41.45,
    "longitude": -70.9217,
    "prediction_type": "Harmonic"
  },
  {
    "name": "Chappaquoit Point, West Falmouth Harbor",
    "station_id": "8447685",
    "latitude": 41.605,
    "longitude": -70.6517,
    "prediction_type": "Harmonic"
  },
  {
    "name": "Monument Beach",
    "station_id": "8447355",
    "latitude": 41.715,
    "longitude": -70.6167,
    "prediction_type": "Subordinate"
  },
  {
    "name": "Gray Gables",
    "station_id": "8447295",
    "latitude": 41.735,
    "longitude": -70.6233,
    "prediction_type": "Harmonic"
  },
  {
    "name": "Cape Cod Canal, RR. bridge",
    "station_id": "8447270",
    "latitude": 41.7417,
    "longitude": -70.6167,
    "prediction_type": "Harmonic"
  },
  {
    "name": "Onset Beach, Onset Bay",
    "station_id": "8447277",
    "latitude": 41.7417,
    "longitude": -70.6583,
    "prediction_type": "Subordinate"
  },
  {
    "name": "Great Hill",
    "station_id": "8447368",
    "latitude": 41.7117,
    "longitude": -70.715,
    "prediction_type": "Harmonic"
  },
  {
    "name": "Marion, Sippican Harbor",
    "station_id": "8447385",
    "latitude": 41.705,
    "longitude": -70.7617,
    "prediction_type": "Subordinate"
  },
  {
    "name": "Piney Point",
    "station_id": "8447416",
    "latitude": 41.695,
    "longitude": -70.72,
    "prediction_type": "Harmonic"
  },
  {
    "name": "Mattapoisett, Mattapoisett Harbor",
    "station_id": "8447531",
    "latitude": 41.6567,
    "longitude": -70.8133,
    "prediction_type": "Subordinate"
  },
  {
    "name": "Clarks Point",
    "station_id": "8447712",
    "latitude": 41.5933,
    "longitude": -70.9,
    "prediction_type": "Harmonic"
  },
  {
    "name": "New Bedford Harbor, Marine Terminal",
    "station_id": "8447636",
    "latitude": 41.6212,
    "longitude": -70.9137,
    "prediction_type": "Harmonic"
  },
  {
    "name": "Round Hill Point",
    "station_id": "8447842",
    "latitude": 41.5383,
    "longitude": -70.9283,
    "prediction_type": "Harmonic"
  },
  {
    "name": "Westport Harbor",
    "station_id": "8447975",
    "latitude": 41.5083,
    "longitude": -71.0933,
    "prediction_type": "Subordinate"
  },
  {
    "name": "Hix Bridge, East Branch",
    "station_id": "8447791",
    "latitude": 41.57,
    "longitude": -71.0733,
    "prediction_type": "Subordinate"
  },
  {
    "name": "Sakonnet",
    "station_id": "8450768",
    "latitude": 41.465,
    "longitude": -71.1933,
    "prediction_type": "Harmonic"
  },
  {
    "name": "Sachuest, Flint Point",
    "station_id": "8451351",
    "latitude": 41.4867,
    "longitude": -71.2383,
    "prediction_type": "Subordinate"
  },
  {
    "name": "The Glen",
    "station_id": "8451301",
    "latitude": 41.5583,
    "longitude": -71.2367,
    "prediction_type": "Subordinate"
  },
  {
    "name": "Nannaquaket Neck",
    "station_id": "8450954",
    "latitude": 41.6183,
    "longitude": -71.2033,
    "prediction_type": "Subordinate"
  },
  {
    "name": "Anthony Point",
    "station_id": "8450948",
    "latitude": 41.6383,
    "longitude": -71.2117,
    "prediction_type": "Subordinate"
  },
  {
    "name": "North End, Bay Oil pier",
    "station_id": "8450898",
    "latitude": 41.6517,
    "longitude": -71.21,
    "prediction_type": "Subordinate"
  },
  {
    "name": "Castle Hill",
    "station_id": "8453201",
    "latitude": 41.4633,
    "longitude": -71.3617,
    "prediction_type": "Subordinate"
  },
  {
    "name": "NEWPORT",
    "station_id": "8452660",
    "latitude": 41.5043,
    "longitude": -71.3261,
    "prediction_type": "Harmonic"
  },
  {
    "name": "Beavertail Point",
    "station_id": "8453999",
    "latitude": 41.4517,
    "longitude": -71.4017,
    "prediction_type": "Subordinate"
  },
  {
    "name": "West Jamestown, Dutch Island Harbor",
    "station_id": "8453742",
    "latitude": 41.4967,
    "longitude": -71.3867,
    "prediction_type": "Harmonic"
  },
  {
    "name": "Conanicut Point",
    "station_id": "8453465",
    "latitude": 41.5733,
    "longitude": -71.3717,
    "prediction_type": "Subordinate"
  },
  {
    "name": "Prudence Island, (south end)",
    "station_id": "8452555",
    "latitude": 41.58,
    "longitude": -71.3217,
    "prediction_type": "Subordinate"
  },
  {
    "name": "Bristol Ferry",
    "station_id": "8451552",
    "latitude": 41.6367,
    "longitude": -71.255,
    "prediction_type": "Harmonic"
  },
  {
    "name": "Bristol, Bristol Harbor",
    "station_id": "8451929",
    "latitude": 41.6683,
    "longitude": -71.28,
    "prediction_type": "Subordinate"
  },
  {
    "name": "Bristol Highlands",
    "station_id": "8452154",
    "latitude": 41.6967,
    "longitude": -71.2933,
    "prediction_type": "Harmonic"
  },
  {
    "name": "KICKAMUIT RIVER",
    "station_id": "8455137",
    "latitude": 41.7078,
    "longitude": -71.2417,
    "prediction_type": "Harmonic"
  },
  {
    "name": "Fall River, Massachusetts",
    "station_id": "8447386",
    "latitude": 41.7043,
    "longitude": -71.1641,
    "prediction_type": "Harmonic"
  },
  {
    "name": "Steep Brook, Taunton River",
    "station_id": "8447281",
    "latitude": 41.74,
    "longitude": -71.1317,
    "prediction_type": "Subordinate"
  },
  {
    "name": "Conimicut Light",
    "station_id": "8452944",
    "latitude": 41.7167,
    "longitude": -71.3433,
    "prediction_type": "Harmonic"
  },
  {
    "name": "Bay Spring, Bullock Cove",
    "station_id": "8453033",
    "latitude": 41.7517,
    "longitude": -71.3517,
    "prediction_type": "Harmonic"
  },
  {
    "name": "Pawtuxet, Pawtuxet Cove",
    "station_id": "8453767",
    "latitude": 41.7617,
    "longitude": -71.3883,
    "prediction_type": "Harmonic"
  },
  {
    "name": "Providence, State Pier no.1",
    "station_id": "8454000",
    "latitude": 41.8072,
    "longitude": -71.4007,
    "prediction_type": "Harmonic"
  },
  {
    "name": "Rumford, Seekonk River",
    "station_id": "8453433",
    "latitude": 41.84,
    "longitude": -71.3733,
    "prediction_type": "Harmonic"
  },
  {
    "name": "Pawtucket, Seekonk River",
    "station_id": "8453611",
    "latitude": 41.8683,
    "longitude": -71.38,
    "prediction_type": "Subordinate"
  },
  {
    "name": "Quonset Point",
    "station_id": "8454049",
    "latitude": 41.5868,
    "longitude": -71.411,
    "prediction_type": "Harmonic"
  },
  {
    "name": "East Greenwich",
    "station_id": "8454578",
    "latitude": 41.665,
    "longitude": -71.445,
    "prediction_type": "Harmonic"
  },
  {
    "name": "Wickford",
    "station_id": "8454538",
    "latitude": 41.5717,
    "longitude": -71.445,
    "prediction_type": "Harmonic"
  },
  {
    "name": "Watson Pier, Boston Neck",
    "station_id": "8454341",
    "latitude": 41.46,
    "longitude": -71.4283,
    "prediction_type": "Subordinate"
  },
  {
    "name": "Narragansett Pier",
    "station_id": "8454658",
    "latitude": 41.4217,
    "longitude": -71.455,
    "prediction_type": "Subordinate"
  },
  {
    "name": "Point Judith, Harbor of Refuge",
    "station_id": "8455083",
    "latitude": 41.3633,
    "longitude": -71.49,
    "prediction_type": "Harmonic"
  },
  {
    "name": "Block Island (Old Harbor)",
    "station_id": "8459338",
    "latitude": 41.1733,
    "longitude": -71.5567,
    "prediction_type": "Harmonic"
  },
  {
    "name": "Southwest Point, Block Island",
    "station_id": "8459681",
    "latitude": 41.1633,
    "longitude": -71.61,
    "prediction_type": "Harmonic"
  },
  {
    "name": "Weekapaug Point, Block Island Sound",
    "station_id": "8458022",
    "latitude": 41.3283,
    "longitude": -71.7617,
    "prediction_type": "Harmonic"
  },
  {
    "name": "Watch Hill Point",
    "station_id": "8458694",
    "latitude": 41.305,
    "longitude": -71.86,
    "prediction_type": "Subordinate"
  },
  {
    "name": "Westerly, Pawcatuck River",
    "station_id": "8455189",
    "latitude": 41.3817,
    "longitude": -71.8317,
    "prediction_type": "Subordinate"
  },
  {
    "name": "WEST MYSTIC, MYSTIC RIVER",
    "station_id": "8460751",
    "latitude": 41.3433,
    "longitude": -71.975,
    "prediction_type": "Harmonic"
  },
  {
    "name": "Silver Eel Pond, Fishers Island, N.Y.",
    "station_id": "8510719",
    "latitude": 41.2567,
    "longitude": -72.03,
    "prediction_type": "Harmonic"
  },
  {
    "name": "NEW LONDON, State Pier",
    "station_id": "8461490",
    "latitude": 41.3614,
    "longitude": -72.09,
    "prediction_type": "Harmonic"
  },
  {
    "name": "Yale boathouse",
    "station_id": "8461467",
    "latitude": 41.43,
    "longitude": -72.0933,
    "prediction_type": "Subordinate"
  },
  {
    "name": "Norwich",
    "station_id": "8461392",
    "latitude": 41.5233,
    "longitude": -72.0783,
    "prediction_type": "Subordinate"
  },
  {
    "name": "Niantic, Niantic River",
    "station_id": "8461925",
    "latitude": 41.325,
    "longitude": -72.1867,
    "prediction_type": "Subordinate"
  },
  {
    "name": "Saybrook Jetty",
    "station_id": "8462723",
    "latitude": 41.2633,
    "longitude": -72.3433,
    "prediction_type": "Subordinate"
  },
  {
    "name": "Saybrook Point",
    "station_id": "8462752",
    "latitude": 41.2833,
    "longitude": -72.35,
    "prediction_type": "Subordinate"
  },
  {
    "name": "Lyme, highway bridge",
    "station_id": "8462764",
    "latitude": 41.3217,
    "longitude": -72.35,
    "prediction_type": "Subordinate"
  },
  {
    "name": "Essex",
    "station_id": "8462925",
    "latitude": 41.3483,
    "longitude": -72.385,
    "prediction_type": "Subordinate"
  },
  {
    "name": "Hadlyme",
    "station_id": "8463155",
    "latitude": 41.42,
    "longitude": -72.4283,
    "prediction_type": "Subordinate"
  },
  {
    "name": "Tylerville",
    "station_id": "8463348",
    "latitude": 41.4517,
    "longitude": -72.465,
    "prediction_type": "Subordinate"
  },
  {
    "name": "Haddam",
    "station_id": "8463582",
    "latitude": 41.4817,
    "longitude": -72.5067,
    "prediction_type": "Subordinate"
  },
  {
    "name": "Higganum Creek",
    "station_id": "8463836",
    "latitude": 41.5033,
    "longitude": -72.5533,
    "prediction_type": "Subordinate"
  },
  {
    "name": "Maromas",
    "station_id": "8463827",
    "latitude": 41.5417,
    "longitude": -72.5517,
    "prediction_type": "Subordinate"
  },
  {
    "name": "Middletown",
    "station_id": "8464336",
    "latitude": 41.56,
    "longitude": -72.645,
    "prediction_type": "Subordinate"
  },
  {
    "name": "Rocky Hill",
    "station_id": "8464255",
    "latitude": 41.6633,
    "longitude": -72.63,
    "prediction_type": "Subordinate"
  },
  {
    "name": "South Hartford",
    "station_id": "8464418",
    "latitude": 41.755,
    "longitude": -72.6583,
    "prediction_type": "Subordinate"
  },
  {
    "name": "Hartford",
    "station_id": "8464464",
    "latitude": 41.77,
    "longitude": -72.6683,
    "prediction_type": "Subordinate"
  },
  {
    "name": "Westbrook, Duck Island Roads",
    "station_id": "8463409",
    "latitude": 41.2733,
    "longitude": -72.475,
    "prediction_type": "Subordinate"
  },
  {
    "name": "Clinton Harbor",
    "station_id": "8463701",
    "latitude": 41.2683,
    "longitude": -72.5317,
    "prediction_type": "Harmonic"
  },
  {
    "name": "Madison",
    "station_id": "8464041",
    "latitude": 41.27,
    "longitude": -72.59,
    "prediction_type": "Subordinate"
  },
  {
    "name": "Guilford Harbor",
    "station_id": "8464445",
    "latitude": 41.2717,
    "longitude": -72.6667,
    "prediction_type": "Subordinate"
  },
  {
    "name": "Sachem Head",
    "station_id": "8464687",
    "latitude": 41.245,
    "longitude": -72.7083,
    "prediction_type": "Subordinate"
  },
  {
    "name": "Branford, Branford River",
    "station_id": "8465233",
    "latitude": 41.2617,
    "longitude": -72.8183,
    "prediction_type": "Subordinate"
  },
  {
    "name": "Lighthouse Point, New Haven Harbor",
    "station_id": "8465692",
    "latitude": 41.2517,
    "longitude": -72.905,
    "prediction_type": "Subordinate"
  },
  {
    "name": "New Haven Harbor, New Haven Reach",
    "station_id": "8465705",
    "latitude": 41.2833,
    "longitude": -72.9083,
    "prediction_type": "Harmonic"
  },
  {
    "name": "Gulf Beach",
    "station_id": "8466375",
    "latitude": 41.205,
    "longitude": -73.0417,
    "prediction_type": "Subordinate"
  },
  {
    "name": "Milford Harbor",
    "station_id": "8466442",
    "latitude": 41.2183,
    "longitude": -73.055,
    "prediction_type": "Subordinate"
  },
  {
    "name": "Sniffens Point",
    "station_id": "8466791",
    "latitude": 41.1867,
    "longitude": -73.1133,
    "prediction_type": "Subordinate"
  },
  {
    "name": "Stratford, I-95 bridge",
    "station_id": "8466797",
    "latitude": 41.2033,
    "longitude": -73.1117,
    "prediction_type": "Subordinate"
  },
  {
    "name": "Long Hill",
    "station_id": "8466664",
    "latitude": 41.275,
    "longitude": -73.0883,
    "prediction_type": "Subordinate"
  },
  {
    "name": "Shelton",
    "station_id": "8466573",
    "latitude": 41.3017,
    "longitude": -73.0717,
    "prediction_type": "Subordinate"
  },
  {
    "name": "BRIDGEPORT",
    "station_id": "8467150",
    "latitude": 41.1758,
    "longitude": -73.184,
    "prediction_type": "Harmonic"
  },
  {
    "name": "Black Rock Harbor",
    "station_id": "8467373",
    "latitude": 41.1567,
    "longitude": -73.2133,
    "prediction_type": "Harmonic"
  },
  {
    "name": "Southport, Southport Harbor",
    "station_id": "8467726",
    "latitude": 41.1333,
    "longitude": -73.2833,
    "prediction_type": "Harmonic"
  },
  {
    "name": "SAUGATUCK, SAUGATUCK RIVER",
    "station_id": "8468191",
    "latitude": 41.12,
    "longitude": -73.3683,
    "prediction_type": "Harmonic"
  },
  {
    "name": "South Norwalk",
    "station_id": "8468448",
    "latitude": 41.0967,
    "longitude": -73.415,
    "prediction_type": "Harmonic"
  },
  {
    "name": "Rowayton, Fivemile River",
    "station_id": "8468609",
    "latitude": 41.065,
    "longitude": -73.445,
    "prediction_type": "Subordinate"
  },
  {
    "name": "Long Neck Point",
    "station_id": "8468799",
    "latitude": 41.0383,
    "longitude": -73.48,
    "prediction_type": "Harmonic"
  },
  {
    "name": "Stamford",
    "station_id": "8469198",
    "latitude": 41.0383,
    "longitude": -73.5467,
    "prediction_type": "Harmonic"
  },
  {
    "name": "Cos Cob Harbor",
    "station_id": "8469549",
    "latitude": 41.0167,
    "longitude": -73.5967,
    "prediction_type": "Subordinate"
  },
  {
    "name": "Rye Beach",
    "station_id": "8518091",
    "latitude": 40.9617,
    "longitude": -73.6717,
    "prediction_type": "Harmonic"
  },
  {
    "name": "New Rochelle",
    "station_id": "8518490",
    "latitude": 40.8933,
    "longitude": -73.7817,
    "prediction_type": "Subordinate"
  },
  {
    "name": "Throgs Neck, Fort Schuyler",
    "station_id": "8518526",
    "latitude": 40.805,
    "longitude": -73.795,
    "prediction_type": "Harmonic"
  },
  {
    "name": "Whitestone",
    "station_id": "8517125",
    "latitude": 40.7983,
    "longitude": -73.8133,
    "prediction_type": "Subordinate"
  },
  {
    "name": "College Point, Flushing Bay",
    "station_id": "8517276",
    "latitude": 40.7833,
    "longitude": -73.8567,
    "prediction_type": "Subordinate"
  },
  {
    "name": "Worlds Fair Marina, Flushing Bay",
    "station_id": "8517251",
    "latitude": 40.761,
    "longitude": -73.8504,
    "prediction_type": "Harmonic"
  },
  {
    "name": "Hunts Point",
    "station_id": "8518621",
    "latitude": 40.8,
    "longitude": -73.8733,
    "prediction_type": "Subordinate"
  },
  {
    "name": "North Brother Island",
    "station_id": "8518635",
    "latitude": 40.7983,
    "longitude": -73.8983,
    "prediction_type": "Subordinate"
  },
  {
    "name": "Port Morris (Stony Point)",
    "station_id": "8518639",
    "latitude": 40.8017,
    "longitude": -73.9067,
    "prediction_type": "Harmonic"
  },
  {
    "name": "Hell Gate, Wards Island",
    "station_id": "8517401",
    "latitude": 40.7867,
    "longitude": -73.9217,
    "prediction_type": "Subordinate"
  },
  {
    "name": "Horns Hook, East 90th Street",
    "station_id": "8518668",
    "latitude": 40.7767,
    "longitude": -73.9417,
    "prediction_type": "Harmonic"
  },
  {
    "name": "Queensboro Bridge",
    "station_id": "8518687",
    "latitude": 40.7583,
    "longitude": -73.9583,
    "prediction_type": "Harmonic"
  },
  {
    "name": "East 41st Street, New York City",
    "station_id": "8518695",
    "latitude": 40.7467,
    "longitude": -73.9683,
    "prediction_type": "Subordinate"
  },
  {
    "name": "Hunters Point, Newtown Creek",
    "station_id": "8517673",
    "latitude": 40.74,
    "longitude": -73.9617,
    "prediction_type": "Subordinate"
  },
  {
    "name": "Williamsburg Bridge",
    "station_id": "8518699",
    "latitude": 40.7117,
    "longitude": -73.9683,
    "prediction_type": "Harmonic"
  },
  {
    "name": "Wallabout Bay, Brooklyn Navy Yard",
    "station_id": "8517732",
    "latitude": 40.7067,
    "longitude": -73.975,
    "prediction_type": "Subordinate"
  },
  {
    "name": "Brooklyn Bridge",
    "station_id": "8517847",
    "latitude": 40.7033,
    "longitude": -73.995,
    "prediction_type": "Harmonic"
  },
  {
    "name": "Harlem River, Randalls Island",
    "station_id": "8518643",
    "latitude": 40.8,
    "longitude": -73.9283,
    "prediction_type": "Harmonic"
  },
  {
    "name": "Willets Point",
    "station_id": "8516990",
    "latitude": 40.7933,
    "longitude": -73.7817,
    "prediction_type": "Harmonic"
  },
  {
    "name": "Kings Point",
    "station_id": "8516945",
    "latitude": 40.8103,
    "longitude": -73.7649,
    "prediction_type": "Harmonic"
  },
  {
    "name": "Port Washington, Manhasset Bay",
    "station_id": "8516761",
    "latitude": 40.8317,
    "longitude": -73.7033,
    "prediction_type": "Harmonic"
  },
  {
    "name": "Harry Tappen Marina, Hempstead Harbor",
    "station_id": "8516607",
    "latitude": 40.8346,
    "longitude": -73.6524,
    "prediction_type": "Harmonic"
  },
  {
    "name": "Glen Cove, Hempstead Harbor",
    "station_id": "8516614",
    "latitude": 40.8633,
    "longitude": -73.655,
    "prediction_type": "Harmonic"
  },
  {
    "name": "Oyster Bay Harbor",
    "station_id": "8516201",
    "latitude": 40.8667,
    "longitude": -73.5167,
    "prediction_type": "Subordinate"
  },
  {
    "name": "Bayville Bridge",
    "station_id": "8516299",
    "latitude": 40.9033,
    "longitude": -73.55,
    "prediction_type": "Harmonic"
  },
  {
    "name": "Cold Spring Harbor",
    "station_id": "8516061",
    "latitude": 40.8733,
    "longitude": -73.47,
    "prediction_type": "Harmonic"
  },
  {
    "name": "Eatons Neck Point",
    "station_id": "8515786",
    "latitude": 40.9533,
    "longitude": -73.4,
    "prediction_type": "Harmonic"
  },
  {
    "name": "Lloyd Harbor, Huntington Bay",
    "station_id": "8515921",
    "latitude": 40.91,
    "longitude": -73.4317,
    "prediction_type": "Harmonic"
  },
  {
    "name": "Northport, Northport Bay",
    "station_id": "8515586",
    "latitude": 40.9,
    "longitude": -73.3533,
    "prediction_type": "Harmonic"
  },
  {
    "name": "Port Jefferson Harbor entrance",
    "station_id": "8514594",
    "latitude": 40.9717,
    "longitude": -73.0917,
    "prediction_type": "Subordinate"
  },
  {
    "name": "Port Jefferson",
    "station_id": "8514560",
    "latitude": 40.95,
    "longitude": -73.0767,
    "prediction_type": "Harmonic"
  },
  {
    "name": "Cedar Beach",
    "station_id": "8514422",
    "latitude": 40.965,
    "longitude": -73.0433,
    "prediction_type": "Harmonic"
  },
  {
    "name": "Mount Sinai Harbor",
    "station_id": "8514421",
    "latitude": 40.9633,
    "longitude": -73.04,
    "prediction_type": "Subordinate"
  },
  {
    "name": "Northville",
    "station_id": "8512987",
    "latitude": 40.9817,
    "longitude": -72.645,
    "prediction_type": "Harmonic"
  },
  {
    "name": "Mattituck Inlet",
    "station_id": "8512668",
    "latitude": 41.015,
    "longitude": -72.5617,
    "prediction_type": "Harmonic"
  },
  {
    "name": "Hashamomuck Beach",
    "station_id": "8512053",
    "latitude": 41.095,
    "longitude": -72.3983,
    "prediction_type": "Subordinate"
  },
  {
    "name": "Little Gull Island",
    "station_id": "8510884",
    "latitude": 41.2067,
    "longitude": -72.1017,
    "prediction_type": "Subordinate"
  },
  {
    "name": "Plum Gut Harbor, Plum Island",
    "station_id": "8511236",
    "latitude": 41.1717,
    "longitude": -72.205,
    "prediction_type": "Harmonic"
  },
  {
    "name": "Orient",
    "station_id": "8511671",
    "latitude": 41.1367,
    "longitude": -72.3067,
    "prediction_type": "Harmonic"
  },
  {
    "name": "Greenport",
    "station_id": "8511907",
    "latitude": 41.101,
    "longitude": -72.3612,
    "prediction_type": "Harmonic"
  },
  {
    "name": "Southold",
    "station_id": "8512114",
    "latitude": 41.06,
    "longitude": -72.4133,
    "prediction_type": "Subordinate"
  },
  {
    "name": "Noyack Bay",
    "station_id": "8511779",
    "latitude": 40.995,
    "longitude": -72.3317,
    "prediction_type": "Subordinate"
  },
  {
    "name": "Sag Harbor",
    "station_id": "8511629",
    "latitude": 41.0033,
    "longitude": -72.2967,
    "prediction_type": "Harmonic"
  },
  {
    "name": "New Suffolk",
    "station_id": "8512328",
    "latitude": 40.9917,
    "longitude": -72.4717,
    "prediction_type": "Subordinate"
  },
  {
    "name": "South Jamesport",
    "station_id": "8512735",
    "latitude": 40.935,
    "longitude": -72.5817,
    "prediction_type": "Harmonic"
  },
  {
    "name": "Threemile Harbor entrance, Gardiners Bay",
    "station_id": "8511171",
    "latitude": 41.035,
    "longitude": -72.19,
    "prediction_type": "Subordinate"
  },
  {
    "name": "Lake Montauk",
    "station_id": "8510448",
    "latitude": 41.0733,
    "longitude": -71.935,
    "prediction_type": "Harmonic"
  },
  {
    "name": "Montauk Harbor entrance",
    "station_id": "8510502",
    "latitude": 41.075,
    "longitude": -71.9367,
    "prediction_type": "Subordinate"
  },
  {
    "name": "Montauk, Fort Pond Bay",
    "station_id": "8510560",
    "latitude": 41.0483,
    "longitude": -71.9594,
    "prediction_type": "Harmonic"
  },
  {
    "name": "Shinnecock Bay entrance",
    "station_id": "8512671",
    "latitude": 40.82,
    "longitude": -72.5617,
    "prediction_type": "Subordinate"
  },
  {
    "name": "Ponquoque Point",
    "station_id": "8512451",
    "latitude": 40.85,
    "longitude": -72.5033,
    "prediction_type": "Harmonic"
  },
  {
    "name": "Shinnecock Yacht Club, Penniman Creek",
    "station_id": "8512769",
    "latitude": 40.8186,
    "longitude": -72.5866,
    "prediction_type": "Harmonic"
  },
  {
    "name": "Shinnecock Inlet (ocean)",
    "station_id": "8512354",
    "latitude": 40.8367,
    "longitude": -72.48,
    "prediction_type": "Harmonic"
  },
  {
    "name": "Moriches Inlet",
    "station_id": "8513398",
    "latitude": 40.7644,
    "longitude": -72.756,
    "prediction_type": "Harmonic"
  },
  {
    "name": "Moriches Coast Guard Station",
    "station_id": "8513388",
    "latitude": 40.7867,
    "longitude": -72.75,
    "prediction_type": "Harmonic"
  },
  {
    "name": "Smith Point Bridge, Narrow Bay",
    "station_id": "8513825",
    "latitude": 40.7383,
    "longitude": -72.8683,
    "prediction_type": "Harmonic"
  },
  {
    "name": "Democrat Point, Fire Island Inlet",
    "station_id": "8515228",
    "latitude": 40.6333,
    "longitude": -73.2933,
    "prediction_type": "Subordinate"
  },
  {
    "name": "Fire Island Coast Guard Station",
    "station_id": "8515186",
    "latitude": 40.6267,
    "longitude": -73.26,
    "prediction_type": "Harmonic"
  },
  {
    "name": "Fire Island Light",
    "station_id": "8515014",
    "latitude": 40.635,
    "longitude": -73.22,
    "prediction_type": "Subordinate"
  },
  {
    "name": "Seaview Ferry Dock",
    "station_id": "8514779",
    "latitude": 40.6493,
    "longitude": -73.1506,
    "prediction_type": "Harmonic"
  },
  {
    "name": "West Fire Island",
    "station_id": "8514961",
    "latitude": 40.6567,
    "longitude": -73.205,
    "prediction_type": "Subordinate"
  },
  {
    "name": "Patchogue",
    "station_id": "8514322",
    "latitude": 40.75,
    "longitude": -73.0,
    "prediction_type": "Harmonic"
  },
  {
    "name": "Great River, Connetquot River",
    "station_id": "8514783",
    "latitude": 40.7233,
    "longitude": -73.1517,
    "prediction_type": "Subordinate"
  },
  {
    "name": "Bay Shore, Watchogue Creek Entrance",
    "station_id": "8515102",
    "latitude": 40.7167,
    "longitude": -73.24,
    "prediction_type": "Subordinate"
  },
  {
    "name": "Oak Beach",
    "station_id": "8515336",
    "latitude": 40.64,
    "longitude": -73.295,
    "prediction_type": "Subordinate"
  },
  {
    "name": "Babylon",
    "station_id": "8515421",
    "latitude": 40.685,
    "longitude": -73.315,
    "prediction_type": "Subordinate"
  },
  {
    "name": "Gilgo Heading",
    "station_id": "8515764",
    "latitude": 40.62,
    "longitude": -73.395,
    "prediction_type": "Subordinate"
  },
  {
    "name": "Amityville",
    "station_id": "8515864",
    "latitude": 40.655,
    "longitude": -73.4183,
    "prediction_type": "Subordinate"
  },
  {
    "name": "Biltmore Shores, South Oyster Bay",
    "station_id": "8516055",
    "latitude": 40.6667,
    "longitude": -73.4683,
    "prediction_type": "Subordinate"
  },
  {
    "name": "Jones Inlet (Point Lookout)",
    "station_id": "8516385",
    "latitude": 40.5867,
    "longitude": -73.5783,
    "prediction_type": "Subordinate"
  },
  {
    "name": "Point Lookout (marina), Jones Inlet",
    "station_id": "8516402",
    "latitude": 40.5939,
    "longitude": -73.584,
    "prediction_type": "Harmonic"
  },
  {
    "name": "Deep Creek Meadow",
    "station_id": "8516225",
    "latitude": 40.6033,
    "longitude": -73.525,
    "prediction_type": "Subordinate"
  },
  {
    "name": "Green Island",
    "station_id": "8516155",
    "latitude": 40.6233,
    "longitude": -73.5017,
    "prediction_type": "Harmonic"
  },
  {
    "name": "Cuba Island",
    "station_id": "8516221",
    "latitude": 40.62,
    "longitude": -73.5233,
    "prediction_type": "Subordinate"
  },
  {
    "name": "Bellmore, Bellmore Creek",
    "station_id": "8516211",
    "latitude": 40.6633,
    "longitude": -73.52,
    "prediction_type": "Subordinate"
  },
  {
    "name": "Neds Creek",
    "station_id": "8516315",
    "latitude": 40.6233,
    "longitude": -73.555,
    "prediction_type": "Subordinate"
  },
  {
    "name": "Freeport, Baldwin Bay",
    "station_id": "8516411",
    "latitude": 40.6333,
    "longitude": -73.5867,
    "prediction_type": "Subordinate"
  },
  {
    "name": "Baldwin, Parsonage Cove, Hempstead Bay",
    "station_id": "8516501",
    "latitude": 40.6333,
    "longitude": -73.6167,
    "prediction_type": "Harmonic"
  },
  {
    "name": "Long Beach (Inside)",
    "station_id": "8516601",
    "latitude": 40.6,
    "longitude": -73.65,
    "prediction_type": "Subordinate"
  },
  {
    "name": "Long Beach, Bridgewater Yacht Club, New York",
    "station_id": "8516663",
    "latitude": 40.5963,
    "longitude": -73.6551,
    "prediction_type": "Harmonic"
  },
  {
    "name": "Bay Park, Hewlett Bay",
    "station_id": "8516661",
    "latitude": 40.63,
    "longitude": -73.67,
    "prediction_type": "Harmonic"
  },
  {
    "name": "Woodmere, Brosewere Bay",
    "station_id": "8516745",
    "latitude": 40.62,
    "longitude": -73.6983,
    "prediction_type": "Subordinate"
  },
  {
    "name": "East Rockaway Inlet, Atlantic Beach",
    "station_id": "8516881",
    "latitude": 40.595,
    "longitude": -73.7433,
    "prediction_type": "Harmonic"
  },
  {
    "name": "Kingsborough, Sheepshead Bay",
    "station_id": "8517756",
    "latitude": 40.5812,
    "longitude": -73.9338,
    "prediction_type": "Harmonic"
  },
  {
    "name": "Plumb Beach Channel",
    "station_id": "8517531",
    "latitude": 40.585,
    "longitude": -73.925,
    "prediction_type": "Subordinate"
  },
  {
    "name": "Barren Island, Rockaway Inlet",
    "station_id": "8517394",
    "latitude": 40.5783,
    "longitude": -73.8883,
    "prediction_type": "Subordinate"
  },
  {
    "name": "Beach Channel (bridge)",
    "station_id": "8517137",
    "latitude": 40.5883,
    "longitude": -73.82,
    "prediction_type": "Subordinate"
  },
  {
    "name": "Motts Basin",
    "station_id": "8516925",
    "latitude": 40.6167,
    "longitude": -73.7583,
    "prediction_type": "Subordinate"
  },
  {
    "name": "Norton Point, Head of Bay",
    "station_id": "8516891",
    "latitude": 40.635,
    "longitude": -73.7467,
    "prediction_type": "Harmonic"
  },
  {
    "name": "J.F.K. International Airport",
    "station_id": "8516999",
    "latitude": 40.6233,
    "longitude": -73.7833,
    "prediction_type": "Subordinate"
  },
  {
    "name": "North Channel Bridge, Grassy Bay",
    "station_id": "8517201",
    "latitude": 40.645,
    "longitude": -73.8367,
    "prediction_type": "Harmonic"
  },
  {
    "name": "Canarsie",
    "station_id": "8517381",
    "latitude": 40.63,
    "longitude": -73.885,
    "prediction_type": "Subordinate"
  },
  {
    "name": "Mill Basin",
    "station_id": "8517519",
    "latitude": 40.6083,
    "longitude": -73.9217,
    "prediction_type": "Subordinate"
  },
  {
    "name": "Coney Island",
    "station_id": "8517741",
    "latitude": 40.57,
    "longitude": -73.9833,
    "prediction_type": "Subordinate"
  },
  {
    "name": "Norton Point, Gravesend Bay",
    "station_id": "8517811",
    "latitude": 40.59,
    "longitude": -73.9983,
    "prediction_type": "Subordinate"
  },
  {
    "name": "Fort Wadsworth, The Narrows, Staten Island",
    "station_id": "8519024",
    "latitude": 40.6067,
    "longitude": -74.055,
    "prediction_type": "Harmonic"
  },
  {
    "name": "Fort Hamilton, The Narrows",
    "station_id": "8517942",
    "latitude": 40.6083,
    "longitude": -74.035,
    "prediction_type": "Subordinate"
  },
  {
    "name": "USCG Station NY",
    "station_id": "8519050",
    "latitude": 40.612,
    "longitude": -74.0599,
    "prediction_type": "Harmonic"
  },
  {
    "name": "St. George, Staten Island",
    "station_id": "8519112",
    "latitude": 40.6433,
    "longitude": -74.0733,
    "prediction_type": "Subordinate"
  },
  {
    "name": "Gowanus Bay",
    "station_id": "8517921",
    "latitude": 40.665,
    "longitude": -74.0133,
    "prediction_type": "Subordinate"
  },
  {
    "name": "NEW YORK (The Battery)",
    "station_id": "8518750",
    "latitude": 40.7006,
    "longitude": -74.0142,
    "prediction_type": "Harmonic"
  },
  {
    "name": "Weehawken, Union City, N.J.",
    "station_id": "8530645",
    "latitude": 40.765,
    "longitude": -74.0183,
    "prediction_type": "Subordinate"
  },
  {
    "name": "Edgewater, N.J.",
    "station_id": "8530505",
    "latitude": 40.8133,
    "longitude": -73.9783,
    "prediction_type": "Subordinate"
  },
  {
    "name": "Dyckman Street, Ferry Slip",
    "station_id": "8518902",
    "latitude": 40.8683,
    "longitude": -73.9333,
    "prediction_type": "Harmonic"
  },
  {
    "name": "Spuyten Duyvil Creek ent., N.Y.",
    "station_id": "8518903",
    "latitude": 40.8783,
    "longitude": -73.925,
    "prediction_type": "Subordinate"
  },
  {
    "name": "Riverdale, N.Y.",
    "station_id": "8518905",
    "latitude": 40.9033,
    "longitude": -73.9167,
    "prediction_type": "Subordinate"
  },
  {
    "name": "Alpine, N.J.",
    "station_id": "8530095",
    "latitude": 40.945,
    "longitude": -73.9183,
    "prediction_type": "Subordinate"
  },
  {
    "name": "Tarrytown",
    "station_id": "8518919",
    "latitude": 41.0783,
    "longitude": -73.87,
    "prediction_type": "Subordinate"
  },
  {
    "name": "Haverstraw",
    "station_id": "8518924",
    "latitude": 41.2183,
    "longitude": -73.9633,
    "prediction_type": "Harmonic"
  },
  {
    "name": "Peekskill",
    "station_id": "8518949",
    "latitude": 41.2883,
    "longitude": -73.9317,
    "prediction_type": "Subordinate"
  },
  {
    "name": "Newburgh",
    "station_id": "8518935",
    "latitude": 41.5,
    "longitude": -74.0067,
    "prediction_type": "Subordinate"
  },
  {
    "name": "Beacon, Flushkill",
    "station_id": "8518934",
    "latitude": 41.5,
    "longitude": -73.9833,
    "prediction_type": "Harmonic"
  },
  {
    "name": "New Hamburg",
    "station_id": "8518939",
    "latitude": 41.5833,
    "longitude": -73.95,
    "prediction_type": "Subordinate"
  },
  {
    "name": "Poughkeepsie",
    "station_id": "8518945",
    "latitude": 41.7,
    "longitude": -73.9333,
    "prediction_type": "Subordinate"
  },
  {
    "name": "Hyde Park",
    "station_id": "8518951",
    "latitude": 41.7833,
    "longitude": -73.95,
    "prediction_type": "Harmonic"
  },
  {
    "name": "Kingston",
    "station_id": "8518993",
    "latitude": 41.9183,
    "longitude": -73.9833,
    "prediction_type": "Subordinate"
  },
  {
    "name": "TURKEY POINT, HUDSON RIVER",
    "station_id": "8518962",
    "latitude": 42.0139,
    "longitude": -73.9392,
    "prediction_type": "Harmonic"
  },
  {
    "name": "Tivoli",
    "station_id": "8518964",
    "latitude": 42.0583,
    "longitude": -73.9167,
    "prediction_type": "Subordinate"
  },
  {
    "name": "Hudson",
    "station_id": "8518974",
    "latitude": 42.25,
    "longitude": -73.8,
    "prediction_type": "Subordinate"
  },
  {
    "name": "Castleton",
    "station_id": "8518989",
    "latitude": 42.5333,
    "longitude": -73.7667,
    "prediction_type": "Subordinate"
  },
  {
    "name": "ALBANY",
    "station_id": "8518995",
    "latitude": 42.65,
    "longitude": -73.7467,
    "prediction_type": "Harmonic"
  },
  {
    "name": "Troy",
    "station_id": "TEC1603",
    "latitude": 42.7167,
    "longitude": -73.7,
    "prediction_type": "Subordinate"
  },
  {
    "name": "Constable Hook",
    "station_id": "8530985",
    "latitude": 40.655,
    "longitude": -74.085,
    "prediction_type": "Subordinate"
  },
  {
    "name": "Bayonne Bridge, Bergen Point",
    "station_id": "8519483",
    "latitude": 40.6391,
    "longitude": -74.1463,
    "prediction_type": "Harmonic"
  },
  {
    "name": "Port Elizabeth",
    "station_id": "8530882",
    "latitude": 40.6733,
    "longitude": -74.14,
    "prediction_type": "Harmonic"
  },
  {
    "name": "Port Newark Terminal",
    "station_id": "8530884",
    "latitude": 40.69,
    "longitude": -74.1333,
    "prediction_type": "Subordinate"
  },
  {
    "name": "Point No Point",
    "station_id": "8530743",
    "latitude": 40.7317,
    "longitude": -74.1167,
    "prediction_type": "Subordinate"
  },
  {
    "name": "Belleville",
    "station_id": "8530591",
    "latitude": 40.7867,
    "longitude": -74.1467,
    "prediction_type": "Subordinate"
  },
  {
    "name": "East Rutherford",
    "station_id": "8530403",
    "latitude": 40.8467,
    "longitude": -74.12,
    "prediction_type": "Subordinate"
  },
  {
    "name": "Kearny Point",
    "station_id": "8530772",
    "latitude": 40.7283,
    "longitude": -74.1033,
    "prediction_type": "Subordinate"
  },
  {
    "name": "Amtrak RR. swing bridge",
    "station_id": "8530696",
    "latitude": 40.7517,
    "longitude": -74.0967,
    "prediction_type": "Subordinate"
  },
  {
    "name": "Fish Creek, Berrys Creek",
    "station_id": "8530586",
    "latitude": 40.7933,
    "longitude": -74.0917,
    "prediction_type": "Subordinate"
  },
  {
    "name": "Carlstadt, Garretts Reach",
    "station_id": "8530528",
    "latitude": 40.8067,
    "longitude": -74.06,
    "prediction_type": "Subordinate"
  },
  {
    "name": "North Secaucus, Garretts Reach",
    "station_id": "8530531",
    "latitude": 40.805,
    "longitude": -74.0533,
    "prediction_type": "Subordinate"
  },
  {
    "name": "Ridgefield Park",
    "station_id": "8530398",
    "latitude": 40.85,
    "longitude": -74.03,
    "prediction_type": "Subordinate"
  },
  {
    "name": "Hackensack",
    "station_id": "8530278",
    "latitude": 40.88,
    "longitude": -74.04,
    "prediction_type": "Subordinate"
  },
  {
    "name": "New Millford",
    "station_id": "8530186",
    "latitude": 40.935,
    "longitude": -74.03,
    "prediction_type": "Subordinate"
  },
  {
    "name": "Port Ivory, Howland Hook, N.Y.",
    "station_id": "8519200",
    "latitude": 40.645,
    "longitude": -74.18,
    "prediction_type": "Subordinate"
  },
  {
    "name": "Rahway River, RR. Bridge",
    "station_id": "8531077",
    "latitude": 40.5983,
    "longitude": -74.2317,
    "prediction_type": "Subordinate"
  },
  {
    "name": "Chelsea",
    "station_id": "TEC1645",
    "latitude": 40.6,
    "longitude": -74.2,
    "prediction_type": "Subordinate"
  },
  {
    "name": "Carteret",
    "station_id": "8531095",
    "latitude": 40.5867,
    "longitude": -74.21,
    "prediction_type": "Subordinate"
  },
  {
    "name": "Rossville, N.Y.",
    "station_id": "8519789",
    "latitude": 40.5567,
    "longitude": -74.2233,
    "prediction_type": "Subordinate"
  },
  {
    "name": "Port Reading, Arthur Kill",
    "station_id": "8531142",
    "latitude": 40.555,
    "longitude": -74.245,
    "prediction_type": "Harmonic"
  },
  {
    "name": "Woodbridge Creek, 0.8 n.mi. above entrance",
    "station_id": "8531156",
    "latitude": 40.545,
    "longitude": -74.265,
    "prediction_type": "Subordinate"
  },
  {
    "name": "Great Kills Harbor",
    "station_id": "8519436",
    "latitude": 40.5433,
    "longitude": -74.14,
    "prediction_type": "Harmonic"
  },
  {
    "name": "Princes Bay",
    "station_id": "8519726",
    "latitude": 40.5117,
    "longitude": -74.2,
    "prediction_type": "Subordinate"
  },
  {
    "name": "South Amboy",
    "station_id": "8531232",
    "latitude": 40.4917,
    "longitude": -74.2817,
    "prediction_type": "Subordinate"
  },
  {
    "name": "Keasbey",
    "station_id": "8531262",
    "latitude": 40.5083,
    "longitude": -74.3117,
    "prediction_type": "Harmonic"
  },
  {
    "name": "Sayreville",
    "station_id": "8531390",
    "latitude": 40.4783,
    "longitude": -74.3567,
    "prediction_type": "Harmonic"
  },
  {
    "name": "Old Bridge, South River",
    "station_id": "8531369",
    "latitude": 40.4167,
    "longitude": -74.3633,
    "prediction_type": "Harmonic"
  },
  {
    "name": "New Brunswick",
    "station_id": "8531463",
    "latitude": 40.4883,
    "longitude": -74.435,
    "prediction_type": "Harmonic"
  },
  {
    "name": "Cheesequake Creek, Garden State Parkway",
    "station_id": "8531223",
    "latitude": 40.4533,
    "longitude": -74.2733,
    "prediction_type": "Harmonic"
  },
  {
    "name": "Keyport",
    "station_id": "8531545",
    "latitude": 40.44,
    "longitude": -74.1983,
    "prediction_type": "Subordinate"
  },
  {
    "name": "Matawan Creek, Route 35 bridge",
    "station_id": "8531526",
    "latitude": 40.4333,
    "longitude": -74.2183,
    "prediction_type": "Subordinate"
  },
  {
    "name": "Waackaack Creek",
    "station_id": "8531592",
    "latitude": 40.4483,
    "longitude": -74.1433,
    "prediction_type": "Subordinate"
  },
  {
    "name": "Atlantic Highlands",
    "station_id": "8531662",
    "latitude": 40.4183,
    "longitude": -74.035,
    "prediction_type": "Subordinate"
  },
  {
    "name": "Sandy Hook, Fort Hancock",
    "station_id": "8531680",
    "latitude": 40.4669,
    "longitude": -74.0094,
    "prediction_type": "Harmonic"
  },
  {
    "name": "Highlands, Route 36 bridge",
    "station_id": "8531712",
    "latitude": 40.3967,
    "longitude": -73.9817,
    "prediction_type": "Subordinate"
  },
  {
    "name": "Oceanic Bridge, Navesink River",
    "station_id": "8531753",
    "latitude": 40.3767,
    "longitude": -74.015,
    "prediction_type": "Subordinate"
  },
  {
    "name": "Red Bank, Navesink River",
    "station_id": "8531833",
    "latitude": 40.355,
    "longitude": -74.065,
    "prediction_type": "Subordinate"
  },
  {
    "name": "Sea Bright",
    "station_id": "8531804",
    "latitude": 40.365,
    "longitude": -73.975,
    "prediction_type": "Subordinate"
  },
  {
    "name": "Gooseneck Point, bridge",
    "station_id": "8531925",
    "latitude": 40.3267,
    "longitude": -74.0167,
    "prediction_type": "Subordinate"
  },
  {
    "name": "Long Branch Reach",
    "station_id": "8531942",
    "latitude": 40.325,
    "longitude": -73.9967,
    "prediction_type": "Subordinate"
  },
  {
    "name": "Shark River Island, fixed RR. bridge",
    "station_id": "8532339",
    "latitude": 40.1867,
    "longitude": -74.0267,
    "prediction_type": "Subordinate"
  },
  {
    "name": "Shark River Hills",
    "station_id": "8532322",
    "latitude": 40.1917,
    "longitude": -74.0383,
    "prediction_type": "Subordinate"
  },
  {
    "name": "New Bedford",
    "station_id": "8532371",
    "latitude": 40.1783,
    "longitude": -74.0467,
    "prediction_type": "Subordinate"
  },
  {
    "name": "Long Branch (fishing pier)",
    "station_id": "8531991",
    "latitude": 40.3033,
    "longitude": -73.9767,
    "prediction_type": "Subordinate"
  },
  {
    "name": "Belmar, Atlantic Ocean",
    "station_id": "8532337",
    "latitude": 40.185,
    "longitude": -74.0083,
    "prediction_type": "Subordinate"
  },
  {
    "name": "Manasquan Inlet, USCG Station",
    "station_id": "8532591",
    "latitude": 40.1017,
    "longitude": -74.035,
    "prediction_type": "Subordinate"
  },
  {
    "name": "Brielle, Route 35 bridge",
    "station_id": "8532585",
    "latitude": 40.105,
    "longitude": -74.055,
    "prediction_type": "Subordinate"
  },
  {
    "name": "Riviera Beach",
    "station_id": "8532611",
    "latitude": 40.0967,
    "longitude": -74.0867,
    "prediction_type": "Subordinate"
  },
  {
    "name": "Beaverdam Creek entrance",
    "station_id": "8532715",
    "latitude": 40.0617,
    "longitude": -74.0617,
    "prediction_type": "Subordinate"
  },
  {
    "name": "Beaverdam Creek, inside",
    "station_id": "8532716",
    "latitude": 40.0617,
    "longitude": -74.0733,
    "prediction_type": "Subordinate"
  },
  {
    "name": "Forge Pond",
    "station_id": "8532703",
    "latitude": 40.065,
    "longitude": -74.135,
    "prediction_type": "Subordinate"
  },
  {
    "name": "Tall Pines Camp",
    "station_id": "8532721",
    "latitude": 40.0583,
    "longitude": -74.1167,
    "prediction_type": "Subordinate"
  },
  {
    "name": "Seaside Heights, ocean",
    "station_id": "8533071",
    "latitude": 39.9433,
    "longitude": -74.035,
    "prediction_type": "Subordinate"
  },
  {
    "name": "Mantoloking",
    "station_id": "8532786",
    "latitude": 40.0367,
    "longitude": -74.0533,
    "prediction_type": "Subordinate"
  },
  {
    "name": "Kettle Creek, Green Island",
    "station_id": "8532835",
    "latitude": 40.0133,
    "longitude": -74.1133,
    "prediction_type": "Subordinate"
  },
  {
    "name": "Ocean Beach",
    "station_id": "8532885",
    "latitude": 39.9883,
    "longitude": -74.0683,
    "prediction_type": "Subordinate"
  },
  {
    "name": "Silver Bay, Silver Bay Marina",
    "station_id": "8532921",
    "latitude": 39.9967,
    "longitude": -74.1483,
    "prediction_type": "Subordinate"
  },
  {
    "name": "Goose Creek entrance",
    "station_id": "8533005",
    "latitude": 39.9633,
    "longitude": -74.115,
    "prediction_type": "Subordinate"
  },
  {
    "name": "Coates Point",
    "station_id": "8533055",
    "latitude": 39.9483,
    "longitude": -74.115,
    "prediction_type": "Subordinate"
  },
  {
    "name": "Toms River (town), Toms River",
    "station_id": "8533051",
    "latitude": 39.95,
    "longitude": -74.1983,
    "prediction_type": "Harmonic"
  },
  {
    "name": "Seaside Park",
    "station_id": "8533135",
    "latitude": 39.9217,
    "longitude": -74.0833,
    "prediction_type": "Subordinate"
  },
  {
    "name": "Barnegat Pier",
    "station_id": "8533141",
    "latitude": 39.9183,
    "longitude": -74.11,
    "prediction_type": "Subordinate"
  },
  {
    "name": "Sloop Creek",
    "station_id": "8533185",
    "latitude": 39.905,
    "longitude": -74.1333,
    "prediction_type": "Subordinate"
  },
  {
    "name": "Cedar Creek",
    "station_id": "8533295",
    "latitude": 39.87,
    "longitude": -74.155,
    "prediction_type": "Subordinate"
  },
  {
    "name": "Island Beach",
    "station_id": "8533345",
    "latitude": 39.8517,
    "longitude": -74.0883,
    "prediction_type": "Subordinate"
  },
  {
    "name": "Stouts Creek",
    "station_id": "8533365",
    "latitude": 39.845,
    "longitude": -74.1517,
    "prediction_type": "Harmonic"
  },
  {
    "name": "Forked River",
    "station_id": "8533391",
    "latitude": 39.825,
    "longitude": -74.1733,
    "prediction_type": "Subordinate"
  },
  {
    "name": "Oyster Creek",
    "station_id": "8533465",
    "latitude": 39.8083,
    "longitude": -74.1883,
    "prediction_type": "Subordinate"
  },
  {
    "name": "Island Beach, Sedge Islands",
    "station_id": "8533535",
    "latitude": 39.7883,
    "longitude": -74.0983,
    "prediction_type": "Subordinate"
  },
  {
    "name": "Waretown",
    "station_id": "8533541",
    "latitude": 39.7917,
    "longitude": -74.1817,
    "prediction_type": "Subordinate"
  },
  {
    "name": "Barnegat Inlet, USCG Station",
    "station_id": "8533615",
    "latitude": 39.7617,
    "longitude": -74.1117,
    "prediction_type": "Harmonic"
  },
  {
    "name": "High Bar",
    "station_id": "8533631",
    "latitude": 39.7567,
    "longitude": -74.1283,
    "prediction_type": "Subordinate"
  },
  {
    "name": "Double Creek",
    "station_id": "8533665",
    "latitude": 39.745,
    "longitude": -74.2017,
    "prediction_type": "Subordinate"
  },
  {
    "name": "Loveladies Harbor",
    "station_id": "8533738",
    "latitude": 39.725,
    "longitude": -74.1367,
    "prediction_type": "Subordinate"
  },
  {
    "name": "Flat Creek",
    "station_id": "8533780",
    "latitude": 39.7067,
    "longitude": -74.1917,
    "prediction_type": "Subordinate"
  },
  {
    "name": "North Beach",
    "station_id": "8533862",
    "latitude": 39.675,
    "longitude": -74.16,
    "prediction_type": "Subordinate"
  },
  {
    "name": "Manahawkin Creek",
    "station_id": "8533909",
    "latitude": 39.6667,
    "longitude": -74.215,
    "prediction_type": "Subordinate"
  },
  {
    "name": "Manahawkin Drawbridge",
    "station_id": "8533935",
    "latitude": 39.6533,
    "longitude": -74.185,
    "prediction_type": "Subordinate"
  },
  {
    "name": "Mill Creek, 1 n.mi. above entrance",
    "station_id": "8533905",
    "latitude": 39.665,
    "longitude": -74.2317,
    "prediction_type": "Subordinate"
  },
  {
    "name": "Cedar Run",
    "station_id": "8533941",
    "latitude": 39.6533,
    "longitude": -74.2567,
    "prediction_type": "Subordinate"
  },
  {
    "name": "Dinner Point Creek, upper end",
    "station_id": "8533982",
    "latitude": 39.6567,
    "longitude": -74.27,
    "prediction_type": "Subordinate"
  },
  {
    "name": "Beach Haven Crest",
    "station_id": "8534048",
    "latitude": 39.6133,
    "longitude": -74.21,
    "prediction_type": "Subordinate"
  },
  {
    "name": "Westecunk Creek entrance",
    "station_id": "8534044",
    "latitude": 39.6133,
    "longitude": -74.2633,
    "prediction_type": "Subordinate"
  },
  {
    "name": "West Creek, Westecunk Creek",
    "station_id": "8533987",
    "latitude": 39.6317,
    "longitude": -74.2967,
    "prediction_type": "Subordinate"
  },
  {
    "name": "Parker Run, upper end",
    "station_id": "8534049",
    "latitude": 39.6167,
    "longitude": -74.31,
    "prediction_type": "Subordinate"
  },
  {
    "name": "Tuckerton Creek entrance",
    "station_id": "8534139",
    "latitude": 39.5767,
    "longitude": -74.3317,
    "prediction_type": "Subordinate"
  },
  {
    "name": "Tuckerton, Tuckerton Creek",
    "station_id": "8534080",
    "latitude": 39.6017,
    "longitude": -74.3417,
    "prediction_type": "Subordinate"
  },
  {
    "name": "Beach Haven Coast Guard Station",
    "station_id": "8534208",
    "latitude": 39.5483,
    "longitude": -74.2567,
    "prediction_type": "Subordinate"
  },
  {
    "name": "Tuckerton, Shooting Thorofare, Little Egg Inlet",
    "station_id": "8534319",
    "latitude": 39.5083,
    "longitude": -74.325,
    "prediction_type": "Harmonic"
  },
  {
    "name": "Little Sheepshead Creek",
    "station_id": "8534287",
    "latitude": 39.5217,
    "longitude": -74.32,
    "prediction_type": "Subordinate"
  },
  {
    "name": "Seven Island, Newmans Thorofare",
    "station_id": "8534296",
    "latitude": 39.5167,
    "longitude": -74.3367,
    "prediction_type": "Subordinate"
  },
  {
    "name": "Graveling Point",
    "station_id": "8534244",
    "latitude": 39.54,
    "longitude": -74.3867,
    "prediction_type": "Subordinate"
  },
  {
    "name": "Nacote Creek, U.S. Highway 9 bridge",
    "station_id": "8534256",
    "latitude": 39.535,
    "longitude": -74.4633,
    "prediction_type": "Subordinate"
  },
  {
    "name": "Chestnut Neck Boat Yard",
    "station_id": "8534212",
    "latitude": 39.5483,
    "longitude": -74.4617,
    "prediction_type": "Subordinate"
  },
  {
    "name": "New Gretna, Bass River",
    "station_id": "8534104",
    "latitude": 39.5917,
    "longitude": -74.4417,
    "prediction_type": "Subordinate"
  },
  {
    "name": "Wading River (town), Wading River",
    "station_id": "8534043",
    "latitude": 39.6183,
    "longitude": -74.4967,
    "prediction_type": "Subordinate"
  },
  {
    "name": "Green Bank",
    "station_id": "8534117",
    "latitude": 39.6117,
    "longitude": -74.59,
    "prediction_type": "Subordinate"
  },
  {
    "name": "Sweetwater, Mullica River Marina",
    "station_id": "8534002",
    "latitude": 39.625,
    "longitude": -74.6417,
    "prediction_type": "Subordinate"
  },
  {
    "name": "Main Marsh Thorofare",
    "station_id": "8534393",
    "latitude": 39.4783,
    "longitude": -74.3833,
    "prediction_type": "Subordinate"
  },
  {
    "name": "Brigantine Channel @ Hoffman Thorofare",
    "station_id": "8534496",
    "latitude": 39.435,
    "longitude": -74.3633,
    "prediction_type": "Subordinate"
  },
  {
    "name": "Absecon, Absecon Creek, U.S. Hwy. 30 bridge",
    "station_id": "8534540",
    "latitude": 39.4233,
    "longitude": -74.5,
    "prediction_type": "Subordinate"
  },
  {
    "name": "Absecon Channel, State Route 87 bridge",
    "station_id": "8534638",
    "latitude": 39.385,
    "longitude": -74.425,
    "prediction_type": "Subordinate"
  },
  {
    "name": "Atlantic City (Ocean)",
    "station_id": "8534720",
    "latitude": 39.3567,
    "longitude": -74.4181,
    "prediction_type": "Harmonic"
  },
  {
    "name": "Ventnor City, ocean pier",
    "station_id": "8534770",
    "latitude": 39.335,
    "longitude": -74.4767,
    "prediction_type": "Harmonic"
  },
  {
    "name": "Longport (inside), Great Egg Harbor Inlet",
    "station_id": "8534836",
    "latitude": 39.3083,
    "longitude": -74.5333,
    "prediction_type": "Harmonic"
  },
  {
    "name": "Dock Thorofare, Risley Channel",
    "station_id": "8534739",
    "latitude": 39.3517,
    "longitude": -74.54,
    "prediction_type": "Subordinate"
  },
  {
    "name": "Pleasantville, Lakes Bay, Great Egg Harbor Inlet",
    "station_id": "8534657",
    "latitude": 39.3817,
    "longitude": -74.5183,
    "prediction_type": "Subordinate"
  },
  {
    "name": "Beesleys Point",
    "station_id": "8534975",
    "latitude": 39.2883,
    "longitude": -74.6283,
    "prediction_type": "Subordinate"
  },
  {
    "name": "Steelmanville, Patcong Ck., 2.5 nm above ent.",
    "station_id": "8534778",
    "latitude": 39.335,
    "longitude": -74.5967,
    "prediction_type": "Harmonic"
  },
  {
    "name": "Tuckahoe, Tuckahoe River",
    "station_id": "8534883",
    "latitude": 39.295,
    "longitude": -74.7483,
    "prediction_type": "Harmonic"
  },
  {
    "name": "Cedar Swamp Creek, Tuckahoe River",
    "station_id": "8535001",
    "latitude": 39.2467,
    "longitude": -74.7183,
    "prediction_type": "Subordinate"
  },
  {
    "name": "River Bend Marina, Great Egg Harbor River",
    "station_id": "8534691",
    "latitude": 39.3683,
    "longitude": -74.7167,
    "prediction_type": "Subordinate"
  },
  {
    "name": "Mays Landing, Great Egg Harbor River",
    "station_id": "8534468",
    "latitude": 39.4483,
    "longitude": -74.7283,
    "prediction_type": "Harmonic"
  },
  {
    "name": "Strathmere, Strathmere Bay",
    "station_id": "8535163",
    "latitude": 39.2,
    "longitude": -74.6567,
    "prediction_type": "Subordinate"
  },
  {
    "name": "Middle Thorofare, Ocean Drive bridge",
    "station_id": "8535101",
    "latitude": 39.215,
    "longitude": -74.6483,
    "prediction_type": "Subordinate"
  },
  {
    "name": "Ludlam Bay, west side",
    "station_id": "8535221",
    "latitude": 39.1767,
    "longitude": -74.71,
    "prediction_type": "Subordinate"
  },
  {
    "name": "Ocean Drive bridge",
    "station_id": "8535375",
    "latitude": 39.1217,
    "longitude": -74.7167,
    "prediction_type": "Harmonic"
  },
  {
    "name": "Townsend Sound",
    "station_id": "8535309",
    "latitude": 39.1467,
    "longitude": -74.75,
    "prediction_type": "Subordinate"
  },
  {
    "name": "Stites Sound",
    "station_id": "8535357",
    "latitude": 39.12,
    "longitude": -74.755,
    "prediction_type": "Subordinate"
  },
  {
    "name": "Ingram Thorofare",
    "station_id": "8535419",
    "latitude": 39.11,
    "longitude": -74.7383,
    "prediction_type": "Subordinate"
  },
  {
    "name": "Long Reach, Ingram Thorofare",
    "station_id": "8535451",
    "latitude": 39.1017,
    "longitude": -74.755,
    "prediction_type": "Subordinate"
  },
  {
    "name": "Stone Harbor, Great Channel",
    "station_id": "8535581",
    "latitude": 39.0567,
    "longitude": -74.765,
    "prediction_type": "Harmonic"
  },
  {
    "name": "Nummy Island, Grassy Sound Channel",
    "station_id": "8535661",
    "latitude": 39.0283,
    "longitude": -74.8017,
    "prediction_type": "Subordinate"
  },
  {
    "name": "West Wildwood, Grassy Sound",
    "station_id": "8535726",
    "latitude": 39.005,
    "longitude": -74.8267,
    "prediction_type": "Subordinate"
  },
  {
    "name": "Old Turtle Thorofare, RR. bridge",
    "station_id": "8535695",
    "latitude": 39.0183,
    "longitude": -74.8417,
    "prediction_type": "Subordinate"
  },
  {
    "name": "Wildwood Crest, ocean pier",
    "station_id": "8535835",
    "latitude": 38.975,
    "longitude": -74.8233,
    "prediction_type": "Harmonic"
  },
  {
    "name": "Swain Channel, Taylor Sound",
    "station_id": "8535805",
    "latitude": 38.98,
    "longitude": -74.8633,
    "prediction_type": "Subordinate"
  },
  {
    "name": "Wildwood Crest, Sunset Lake",
    "station_id": "8535838",
    "latitude": 38.9783,
    "longitude": -74.8367,
    "prediction_type": "Subordinate"
  },
  {
    "name": "Cape May Harbor",
    "station_id": "8535901",
    "latitude": 38.9483,
    "longitude": -74.8917,
    "prediction_type": "Subordinate"
  },
  {
    "name": "Cape Island Creek, Cape May",
    "station_id": "8535902",
    "latitude": 38.9467,
    "longitude": -74.9133,
    "prediction_type": "Subordinate"
  },
  {
    "name": "Cape May, Atlantic Ocean",
    "station_id": "8535962",
    "latitude": 38.93,
    "longitude": -74.935,
    "prediction_type": "Subordinate"
  },
  {
    "name": "Brandywine Shoal Light",
    "station_id": "8555889",
    "latitude": 38.9867,
    "longitude": -75.1133,
    "prediction_type": "Harmonic"
  },
  {
    "name": "Cape May Point, Sunset Beach",
    "station_id": "8536021",
    "latitude": 38.9467,
    "longitude": -74.9717,
    "prediction_type": "Subordinate"
  },
  {
    "name": "Cape May, ferry terminal",
    "station_id": "8536110",
    "latitude": 38.9683,
    "longitude": -74.96,
    "prediction_type": "Harmonic"
  },
  {
    "name": "North Highlands Beach",
    "station_id": "8536271",
    "latitude": 39.0183,
    "longitude": -74.9533,
    "prediction_type": "Subordinate"
  },
  {
    "name": "Dias Creek, Route 47 bridge",
    "station_id": "8536449",
    "latitude": 39.0833,
    "longitude": -74.8867,
    "prediction_type": "Subordinate"
  },
  {
    "name": "Bidwell Creek entrance",
    "station_id": "8536581",
    "latitude": 39.1283,
    "longitude": -74.8917,
    "prediction_type": "Harmonic"
  },
  {
    "name": "Bidwell Creek, Route 47 bridge",
    "station_id": "8536551",
    "latitude": 39.1183,
    "longitude": -74.8683,
    "prediction_type": "Subordinate"
  },
  {
    "name": "Dennis Creek, 2.5 n.mi. above entrance",
    "station_id": "8536736",
    "latitude": 39.1783,
    "longitude": -74.8517,
    "prediction_type": "Subordinate"
  },
  {
    "name": "Sluice Creek, Route 47 bridge, Dennis Creek",
    "station_id": "8536687",
    "latitude": 39.1617,
    "longitude": -74.8317,
    "prediction_type": "Subordinate"
  },
  {
    "name": "Dennis Creek, Route 47 bridge",
    "station_id": "8536752",
    "latitude": 39.1833,
    "longitude": -74.8217,
    "prediction_type": "Subordinate"
  },
  {
    "name": "East Creek, Route 47 bridge",
    "station_id": "8536823",
    "latitude": 39.2083,
    "longitude": -74.9017,
    "prediction_type": "Subordinate"
  },
  {
    "name": "West Creek, 0.7 n.mi. above entrance",
    "station_id": "8536764",
    "latitude": 39.1883,
    "longitude": -74.915,
    "prediction_type": "Subordinate"
  },
  {
    "name": "West Creek, Route 47 bridge",
    "station_id": "8536851",
    "latitude": 39.2167,
    "longitude": -74.925,
    "prediction_type": "Subordinate"
  },
  {
    "name": "Riggins Ditch, 0.5 n.mi. above entrance",
    "station_id": "8536801",
    "latitude": 39.2,
    "longitude": -74.97,
    "prediction_type": "Subordinate"
  },
  {
    "name": "Riggins Ditch, Heislerville",
    "station_id": "8536855",
    "latitude": 39.2183,
    "longitude": -74.98,
    "prediction_type": "Subordinate"
  },
  {
    "name": "East Point, Maurice River Cove",
    "station_id": "8536780",
    "latitude": 39.2,
    "longitude": -75.02,
    "prediction_type": "Subordinate"
  },
  {
    "name": "Bivalve, Maurice River",
    "station_id": "8535055",
    "latitude": 39.2325,
    "longitude": -75.0328,
    "prediction_type": "Harmonic"
  },
  {
    "name": "Mauricetown",
    "station_id": "8537059",
    "latitude": 39.285,
    "longitude": -74.9917,
    "prediction_type": "Subordinate"
  },
  {
    "name": "Port Elizabeth, Manumuskin River",
    "station_id": "8537147",
    "latitude": 39.3133,
    "longitude": -74.985,
    "prediction_type": "Subordinate"
  },
  {
    "name": "Menantico Creek entrance",
    "station_id": "8537242",
    "latitude": 39.3433,
    "longitude": -75.0083,
    "prediction_type": "Subordinate"
  },
  {
    "name": "Millville",
    "station_id": "8537359",
    "latitude": 39.3917,
    "longitude": -75.0417,
    "prediction_type": "Subordinate"
  },
  {
    "name": "Dividing Creek entrance",
    "station_id": "8536849",
    "latitude": 39.2167,
    "longitude": -75.1033,
    "prediction_type": "Subordinate"
  },
  {
    "name": "Weir Creek bridge, Dividing Creek",
    "station_id": "8536935",
    "latitude": 39.25,
    "longitude": -75.1283,
    "prediction_type": "Subordinate"
  },
  {
    "name": "Fishing Creek entrance",
    "station_id": "8536848",
    "latitude": 39.2167,
    "longitude": -75.1583,
    "prediction_type": "Subordinate"
  },
  {
    "name": "Fortescue Creek",
    "station_id": "8536931",
    "latitude": 39.2383,
    "longitude": -75.175,
    "prediction_type": "Harmonic"
  },
  {
    "name": "Hollywood Beach, The Glades",
    "station_id": "8537026",
    "latitude": 39.275,
    "longitude": -75.1417,
    "prediction_type": "Subordinate"
  },
  {
    "name": "Money Island, Nantuxent Creek entrance",
    "station_id": "8537052",
    "latitude": 39.285,
    "longitude": -75.2383,
    "prediction_type": "Subordinate"
  },
  {
    "name": "Newport Landing, Nantuxent Creek",
    "station_id": "8537079",
    "latitude": 39.2917,
    "longitude": -75.1983,
    "prediction_type": "Subordinate"
  },
  {
    "name": "Cedar Creek entrance, Nantuxent Cove",
    "station_id": "8537101",
    "latitude": 39.2983,
    "longitude": -75.2467,
    "prediction_type": "Subordinate"
  },
  {
    "name": "Back Creek entrance, Nantuxent Cove",
    "station_id": "8537116",
    "latitude": 39.305,
    "longitude": -75.2783,
    "prediction_type": "Subordinate"
  },
  {
    "name": "Ship John Shoal",
    "station_id": "8537121",
    "latitude": 39.3054,
    "longitude": -75.3767,
    "prediction_type": "Harmonic"
  },
  {
    "name": "Greenwich Pier, Cohansey River",
    "station_id": "8537374",
    "latitude": 39.3833,
    "longitude": -75.35,
    "prediction_type": "Subordinate"
  },
  {
    "name": "Tindalls Wharf, Cohansey River",
    "station_id": "8537353",
    "latitude": 39.3783,
    "longitude": -75.235,
    "prediction_type": "Subordinate"
  },
  {
    "name": "LEWES (BREAKWATER HARBOR)",
    "station_id": "8557380",
    "latitude": 38.7828,
    "longitude": -75.1193,
    "prediction_type": "Harmonic"
  },
  {
    "name": "Mispillion River entrance",
    "station_id": "8556198",
    "latitude": 38.945,
    "longitude": -75.3133,
    "prediction_type": "Subordinate"
  },
  {
    "name": "Murderkill River entrance",
    "station_id": "8555388",
    "latitude": 39.0583,
    "longitude": -75.3967,
    "prediction_type": "Subordinate"
  },
  {
    "name": "Mahon River entrance",
    "station_id": "8554399",
    "latitude": 39.185,
    "longitude": -75.4,
    "prediction_type": "Harmonic"
  },
  {
    "name": "Leipsic, Leipsic River",
    "station_id": "8554038",
    "latitude": 39.245,
    "longitude": -75.5183,
    "prediction_type": "Subordinate"
  },
  {
    "name": "Stathems Neck, Stow Creek, N.J.",
    "station_id": "8537416",
    "latitude": 39.4067,
    "longitude": -75.405,
    "prediction_type": "Subordinate"
  },
  {
    "name": "Woodland Beach, Del.",
    "station_id": "8553501",
    "latitude": 39.3333,
    "longitude": -75.4667,
    "prediction_type": "Subordinate"
  },
  {
    "name": "Raccoon Ditch, Newport Meadows, Stow Creek, N.J.",
    "station_id": "8537489",
    "latitude": 39.4217,
    "longitude": -75.3817,
    "prediction_type": "Subordinate"
  },
  {
    "name": "Canton, Stow Creek, N.J.",
    "station_id": "8537562",
    "latitude": 39.4617,
    "longitude": -75.4033,
    "prediction_type": "Subordinate"
  },
  {
    "name": "1 n.mi. above entrance, N.J.",
    "station_id": "8537535",
    "latitude": 39.4317,
    "longitude": -75.4467,
    "prediction_type": "Subordinate"
  },
  {
    "name": "Pine Island, Malapartis Creek, N.J.",
    "station_id": "8537488",
    "latitude": 39.4217,
    "longitude": -75.4283,
    "prediction_type": "Subordinate"
  },
  {
    "name": "Hope Creek, 0.6 n.mi. above entrance, N.J.",
    "station_id": "8537667",
    "latitude": 39.4583,
    "longitude": -75.495,
    "prediction_type": "Subordinate"
  },
  {
    "name": "Taylors Bridge, Blackbird Creek, Del.",
    "station_id": "8553069",
    "latitude": 39.405,
    "longitude": -75.5983,
    "prediction_type": "Subordinate"
  },
  {
    "name": "Artificial Island, Salem Nuclear Plant, N.J.",
    "station_id": "8537614",
    "latitude": 39.46,
    "longitude": -75.5317,
    "prediction_type": "Subordinate"
  },
  {
    "name": "Sinnickson Landing",
    "station_id": "8537961",
    "latitude": 39.57,
    "longitude": -75.4983,
    "prediction_type": "Subordinate"
  },
  {
    "name": "Salem",
    "station_id": "8537979",
    "latitude": 39.5767,
    "longitude": -75.4767,
    "prediction_type": "Subordinate"
  },
  {
    "name": "0.8 n.mi. above entrance",
    "station_id": "8537731",
    "latitude": 39.4967,
    "longitude": -75.5167,
    "prediction_type": "Subordinate"
  },
  {
    "name": "Abbots Meadow",
    "station_id": "8537774",
    "latitude": 39.5117,
    "longitude": -75.4933,
    "prediction_type": "Subordinate"
  },
  {
    "name": "2.5 n.mi. above entrance",
    "station_id": "8537753",
    "latitude": 39.505,
    "longitude": -75.4833,
    "prediction_type": "Subordinate"
  },
  {
    "name": "Coopers Creek bridge",
    "station_id": "8537779",
    "latitude": 39.5133,
    "longitude": -75.4467,
    "prediction_type": "Subordinate"
  },
  {
    "name": "Quinton",
    "station_id": "8537889",
    "latitude": 39.5483,
    "longitude": -75.415,
    "prediction_type": "Subordinate"
  },
  {
    "name": "REEDY POINT",
    "station_id": "8551910",
    "latitude": 39.5583,
    "longitude": -75.5719,
    "prediction_type": "Harmonic"
  },
  {
    "name": "St. Georges, Delaware",
    "station_id": "8551973",
    "latitude": 39.555,
    "longitude": -75.6483,
    "prediction_type": "Subordinate"
  },
  {
    "name": "Summit Bridge, Delaware",
    "station_id": "8552125",
    "latitude": 39.5333,
    "longitude": -75.7333,
    "prediction_type": "Subordinate"
  },
  {
    "name": "Chesapeake City, Maryland",
    "station_id": "8573927",
    "latitude": 39.5267,
    "longitude": -75.81,
    "prediction_type": "Harmonic"
  },
  {
    "name": "Delaware City Branch Channel bridge",
    "station_id": "8551851",
    "latitude": 39.57,
    "longitude": -75.59,
    "prediction_type": "Subordinate"
  },
  {
    "name": "Delaware City",
    "station_id": "8551762",
    "latitude": 39.5822,
    "longitude": -75.589,
    "prediction_type": "Harmonic"
  },
  {
    "name": "Pea Patch Island, Bulkhead Shoal Channel, Del.",
    "station_id": "8551702",
    "latitude": 39.5833,
    "longitude": -75.5733,
    "prediction_type": "Subordinate"
  },
  {
    "name": "New Castle, Delaware",
    "station_id": "8551201",
    "latitude": 39.6567,
    "longitude": -75.5617,
    "prediction_type": "Subordinate"
  },
  {
    "name": "Salem Canal entrance, N.J.",
    "station_id": "8538231",
    "latitude": 39.6833,
    "longitude": -75.51,
    "prediction_type": "Subordinate"
  },
  {
    "name": "Wilmington Marine Terminal",
    "station_id": "8550714",
    "latitude": 39.7183,
    "longitude": -75.52,
    "prediction_type": "Subordinate"
  },
  {
    "name": "Millside, RR. bridge",
    "station_id": "8550658",
    "latitude": 39.725,
    "longitude": -75.56,
    "prediction_type": "Subordinate"
  },
  {
    "name": "Edgemoor, Del.",
    "station_id": "8550438",
    "latitude": 39.75,
    "longitude": -75.4933,
    "prediction_type": "Subordinate"
  },
  {
    "name": "Pedricktown, Oldmans Creek, N.J.",
    "station_id": "8538369",
    "latitude": 39.7617,
    "longitude": -75.4033,
    "prediction_type": "Subordinate"
  },
  {
    "name": "Auburn, Oldmans Creek, N.J.",
    "station_id": "8538274",
    "latitude": 39.715,
    "longitude": -75.36,
    "prediction_type": "Subordinate"
  },
  {
    "name": "Rehoboth Beach",
    "station_id": "8557863",
    "latitude": 38.72,
    "longitude": -75.0833,
    "prediction_type": "Subordinate"
  },
  {
    "name": "Indian River Inlet (Coast Guard Station)",
    "station_id": "8558690",
    "latitude": 38.61,
    "longitude": -75.07,
    "prediction_type": "Harmonic"
  },
  {
    "name": "Rosedale Beach, Indian River",
    "station_id": "8558814",
    "latitude": 38.5915,
    "longitude": -75.2116,
    "prediction_type": "Harmonic"
  },
  {
    "name": "Little Assawoman Bay",
    "station_id": "8559957",
    "latitude": 38.455,
    "longitude": -75.0583,
    "prediction_type": "Harmonic"
  },
  {
    "name": "Marcus Hook, Pa.",
    "station_id": "8540433",
    "latitude": 39.8118,
    "longitude": -75.4095,
    "prediction_type": "Harmonic"
  },
  {
    "name": "Bridgeport, Raccoon Creek, N.J.",
    "station_id": "8538449",
    "latitude": 39.8067,
    "longitude": -75.355,
    "prediction_type": "Subordinate"
  },
  {
    "name": "Wanamaker Bridge",
    "station_id": "8542425",
    "latitude": 39.8767,
    "longitude": -75.305,
    "prediction_type": "Subordinate"
  },
  {
    "name": "Norwood City",
    "station_id": "8542699",
    "latitude": 39.88,
    "longitude": -75.29,
    "prediction_type": "Subordinate"
  },
  {
    "name": "Tinicum National Wildlife Refuge",
    "station_id": "8542885",
    "latitude": 39.8783,
    "longitude": -75.2767,
    "prediction_type": "Subordinate"
  },
  {
    "name": "Tinicum National Wildlife Refuge",
    "station_id": "8543024",
    "latitude": 39.8867,
    "longitude": -75.265,
    "prediction_type": "Subordinate"
  },
  {
    "name": "Billingsport, N.J.",
    "station_id": "8538552",
    "latitude": 39.85,
    "longitude": -75.25,
    "prediction_type": "Subordinate"
  },
  {
    "name": "Paulsboro, Mantua Creek, N.J.",
    "station_id": "8538512",
    "latitude": 39.835,
    "longitude": -75.2383,
    "prediction_type": "Harmonic"
  },
  {
    "name": "Mantua, Mantua Creek, N.J.",
    "station_id": "8538438",
    "latitude": 39.795,
    "longitude": -75.1767,
    "prediction_type": "Subordinate"
  },
  {
    "name": "Woodbury Creek, N.J.",
    "station_id": "8538548",
    "latitude": 39.86,
    "longitude": -75.1867,
    "prediction_type": "Subordinate"
  },
  {
    "name": "Penrose Avenue Bridge",
    "station_id": "8543925",
    "latitude": 39.8983,
    "longitude": -75.2117,
    "prediction_type": "Subordinate"
  },
  {
    "name": "Market Street Bridge",
    "station_id": "8545120",
    "latitude": 39.955,
    "longitude": -75.18,
    "prediction_type": "Subordinate"
  },